[{"business_id": "a3yfBL2Nlm6Z6-1Yzl4ncw", "name": "Din Tai Fung", "address": "4301 La Jolla Village Dr ,Ste 2000 ,San Diego, CA 92122", "city": "San Diego", "state": "CA", "postal_code": "92122", "latitude": 32.8723812680163, "longitude": -117.21242234341588, "stars": 4.5, "review_count": 4852, "is_open": 1, "attributes": null, "tag": ["taiwanese", "dimsum", "shanghainese"], "hours": {"Monday": ["1100", "2130"], "Tuesday": ["1100", "2130"], "Wednesday": ["1100", "2130"], "Thursday": ["1100", "2130"], "Friday": ["1100", "2200"], "Saturday": ["1000", "2200"], "Sunday": ["1000", "2100"]}, "location": {"type": "Point", "coordinates": [-117.21242234341588, 32.8723812680163]}, "price": "$$$", "categories": "restaurant, all"}, {"business_id": "s_lr7HS3zppEXH7dYBLxZw", "name": "True Food Kitchen", "address": "4303 La Jolla Village Dr ,Ste 2100 ,San Diego, CA 92122", "city": "San Diego", "state": "CA", "postal_code": "92122", "latitude": 32.872245, "longitude": -117.213497, "stars": 4.5, "review_count": 849, "is_open": 1, "attributes": null, "tag": ["newamerican", "breakfast_brunch", "comfortfood"], "hours": {"Monday": ["1100", "2100"], "Tuesday": ["1100", "2100"], "Wednesday": ["1100", "2100"], "Thursday": ["1100", "2100"], "Friday": ["1100", "2100"], "Saturday": ["1030", "2100"], "Sunday": ["1030", "2000"]}, "location": {"type": "Point", "coordinates": [-117.213497, 32.872245]}, "price": "$$", "categories": "restaurant, all"}, {"business_id": "o3aR8CJt__6l_kfHE2qV0A", "name": "RED O Taste of Mexico", "address": "4340 La Jolla Village Dr ,San Diego, CA 92122", "city": "San Diego", "state": "CA", "postal_code": "92122", "latitude": 32.8735, "longitude": -117.21241, "stars": 4.0, "review_count": 1742, "is_open": 1, "attributes": null, "tag": ["mexican", "seafood", "breakfast_brunch"], "hours": {"Monday": ["1100", "2300"], "Tuesday": ["1100", "2300"], "Wednesday": ["1100", "2300"], "Thursday": ["1100", "2300"], "Friday": ["1100", "2300"], "Saturday": ["1100", "2300"], "Sunday": ["1100", "2300"]}, "location": {"type": "Point", "coordinates": [-117.21241, 32.8735]}, "price": "$$", "categories": "restaurant, all"}, {"business_id": "76ADW8x8J_69qbtsc5F-2g", "name": "The Winery Restaurant & Wine Bar", "address": "4301 La Jolla Village Dr ,Ste 2040 ,San Diego, CA 92122", "city": "San Diego", "state": "CA", "postal_code": "92122", "latitude": 32.872351020885304, "longitude": -117.21315546262308, "stars": 4.0, "review_count": 714, "is_open": 1, "attributes": null, "tag": ["bars", "newamerican"], "hours": {"Monday": ["1500", "2200"], "Tuesday": ["1130", "2200"], "Wednesday": ["1130", "2200"], "Thursday": ["1130", "2200"], "Friday": ["1130", "2200"], "Saturday": ["1130", "2300"], "Sunday": ["1130", "2100"]}, "location": {"type": "Point", "coordinates": [-117.21315546262308, 32.872351020885304]}, "price": "$$$", "categories": "restaurant, all"}, {"business_id": "u0Cc5ZIrm3p2yTlt_jQIcA", "name": "Urban Plates", "address": "8707 Villa La Jolla Dr ,La Jolla, CA 92037", "city": "La Jolla", "state": "CA", "postal_code": "92037", "latitude": 32.867209, "longitude": -117.233004, "stars": 4.5, "review_count": 1568, "is_open": 1, "attributes": null, "tag": ["newamerican", "salad", "sandwiches"], "hours": {"Monday": ["1100", "2115"], "Tuesday": ["1100", "2115"], "Wednesday": ["1100", "2115"], "Thursday": ["1100", "2115"], "Friday": ["1100", "2145"], "Saturday": ["1100", "2145"], "Sunday": ["1100", "2115"]}, "location": {"type": "Point", "coordinates": [-117.233004, 32.867209]}, "price": "$$", "categories": "restaurant, all"}, {"business_id": "1fRCPsVzhhQr3C691KQnIg", "name": "Eureka!", "address": "4353 La Jolla Village Dr ,San Diego, CA 92122", "city": "San Diego", "state": "CA", "postal_code": "92122", "latitude": 32.870379, "longitude": -117.211938, "stars": 4.0, "review_count": 1822, "is_open": 1, "attributes": null, "tag": ["tradamerican"], "hours": {"Monday": ["1100", "0000"], "Tuesday": ["1100", "0000"], "Wednesday": ["1100", "0000"], "Thursday": ["1100", "0000"], "Friday": ["1100", "0100"], "Saturday": ["1100", "0100"], "Sunday": ["1100", "0000"]}, "location": {"type": "Point", "coordinates": [-117.211938, 32.870379]}, "price": "$$", "categories": "restaurant, all"}, {"business_id": "lDa5pZULq8QlOmHKbmoe0Q", "name": "George's at the Cove", "address": "1250 Prospect St ,La Jolla, CA 92037", "city": "La Jolla", "state": "CA", "postal_code": "92037", "latitude": 32.8493251529481, "longitude": -117.271774815344, "stars": 4.0, "review_count": 4360, "is_open": 1, "attributes": null, "tag": ["newamerican", "seafood", "vegetarian"], "hours": {"Monday": ["1100", "2100"], "Tuesday": ["1100", "2100"], "Wednesday": ["1100", "2100"], "Thursday": ["1100", "2100"], "Friday": ["1100", "2130"], "Saturday": ["1100", "2130"], "Sunday": ["1100", "2100"]}, "location": {"type": "Point", "coordinates": [-117.271774815344, 32.8493251529481]}, "price": "$$$", "categories": "restaurant, all"}, {"business_id": "v1r1ZUcX2Xa8MijwF8dtrw", "name": "Duke's La Jolla", "address": "1216 Prospect St ,La Jolla, CA 92037", "city": "La Jolla", "state": "CA", "postal_code": "92037", "latitude": 32.8492656, "longitude": -117.27248429447752, "stars": 4.0, "review_count": 3330, "is_open": 1, "attributes": null, "tag": ["newamerican", "breakfast_brunch", "seafood"], "hours": {"Monday": ["1100", "2030"], "Tuesday": ["1100", "2030"], "Wednesday": ["1100", "2030"], "Thursday": ["1100", "2030"], "Friday": ["1100", "2100"], "Saturday": ["1000", "2100"], "Sunday": ["1000", "2030"]}, "location": {"type": "Point", "coordinates": [-117.27248429447752, 32.8492656]}, "price": "$$", "categories": "restaurant, all"}, {"business_id": "srADavyVz6tuH1PmahajZQ", "name": "Seasons 52", "address": "4505 La Jolla Village Dr ,Ste C-1 ,San Diego, CA 92122", "city": "San Diego", "state": "CA", "postal_code": "92122", "latitude": 32.87223080051908, "longitude": -117.20962767420993, "stars": 4.0, "review_count": 1760, "is_open": 1, "attributes": null, "tag": ["newamerican", "wine_bars", "seafood"], "hours": {"Monday": ["1100", "2200"], "Tuesday": ["1100", "2200"], "Wednesday": ["1100", "2200"], "Thursday": ["1100", "2200"], "Friday": ["1100", "2200"], "Saturday": ["1100", "2200"], "Sunday": ["1100", "2100"]}, "location": {"type": "Point", "coordinates": [-117.20962767420993, 32.87223080051908]}, "price": "$$", "categories": "restaurant, all"}, {"business_id": "RDF_NgJ5U-MUhFY1SbhPfg", "name": "A.R. Valentien", "address": "The Lodge At Torrey Pines ,11480 N Torrey Pines Rd ,La Jolla, CA 92037", "city": "La Jolla", "state": "CA", "postal_code": "92037", "latitude": 32.90402790112491, "longitude": -117.244504855125, "stars": 4.0, "review_count": 367, "is_open": 1, "attributes": null, "tag": ["newamerican", "wine_bars"], "hours": {"Monday": ["1700", "2130"], "Tuesday": ["1700", "2130"], "Wednesday": ["1700", "2130"], "Thursday": ["1700", "2130"], "Friday": ["1700", "2130"], "Saturday": ["1700", "2130"], "Sunday": ["1700", "2130"]}, "location": {"type": "Point", "coordinates": [-117.244504855125, 32.90402790112491]}, "price": "$$$$", "categories": "restaurant, all"}, {"business_id": "VgCNYGtyXq9iD2-qVzc03g", "name": "Mendocino Farms", "address": "8795 Villa La Jolla Dr ,La Jolla, CA 92037", "city": "La Jolla", "state": "CA", "postal_code": "92037", "latitude": 32.8679444055646, "longitude": -117.23285917595818, "stars": 4.5, "review_count": 851, "is_open": 1, "attributes": null, "tag": ["salad", "sandwiches"], "hours": {"Monday": ["1100", "2100"], "Tuesday": ["1100", "2100"], "Wednesday": ["1100", "2100"], "Thursday": ["1100", "2100"], "Friday": ["1100", "2100"], "Saturday": ["1100", "2100"], "Sunday": ["1100", "2100"]}, "location": {"type": "Point", "coordinates": [-117.23285917595818, 32.8679444055646]}, "price": "$$", "categories": "restaurant, all"}, {"business_id": "tptN11eE0AAjvZFN042Z0Q", "name": "Piatti", "address": "2182 Avenida De Ln ,Playa La Jolla, CA 92037", "city": "Playa La Jolla", "state": "CA", "postal_code": "92037", "latitude": 32.85404437977841, "longitude": -117.2560607, "stars": 4.5, "review_count": 2198, "is_open": 1, "attributes": null, "tag": ["italian", "pizza", "bars"], "hours": {"Monday": ["1100", "2100"], "Tuesday": ["1100", "2100"], "Wednesday": ["1100", "2100"], "Thursday": ["1100", "2100"], "Friday": ["1100", "2130"], "Saturday": ["1100", "2130"], "Sunday": ["1100", "2100"]}, "location": {"type": "Point", "coordinates": [-117.2560607, 32.85404437977841]}, "price": "$$", "categories": "restaurant, all"}, {"business_id": "wtUf34szIjjpH0AZ0Isu7w", "name": "Shorehouse Kitchen", "address": "2236 Avenida De La Playa ,La Jolla, CA 92037", "city": "La Jolla", "state": "CA", "postal_code": "92037", "latitude": 32.8539270057529, "longitude": -117.254643428836, "stars": 4.5, "review_count": 2096, "is_open": 1, "attributes": null, "tag": ["coffee", "breakfast_brunch", "newamerican"], "hours": {"Monday": ["0730", "1430"], "Tuesday": ["0730", "1430"], "Wednesday": ["0730", "1430"], "Thursday": ["0730", "1430"], "Friday": ["0730", "1530"], "Saturday": ["0730", "1530"], "Sunday": ["0730", "1530"]}, "location": {"type": "Point", "coordinates": [-117.254643428836, 32.8539270057529]}, "price": "$$", "categories": "restaurant, all, food, food, food, coffee"}, {"business_id": "abJgN4nHxiyEr7RP-ARrEg", "name": "The Melt", "address": "8849 Villa La Jolla Dr ,La Jolla, CA 92037", "city": "La Jolla", "state": "CA", "postal_code": "92037", "latitude": 32.86859, "longitude": -117.23356, "stars": 4.0, "review_count": 1129, "is_open": 1, "attributes": null, "tag": ["tradamerican", "sandwiches", "burgers"], "hours": {"Monday": ["1000", "0200"], "Tuesday": ["1000", "0200"], "Wednesday": ["1000", "0200"], "Thursday": ["1000", "0200"], "Friday": ["1000", "0200"], "Saturday": ["1000", "0200"], "Sunday": ["1000", "0200"]}, "location": {"type": "Point", "coordinates": [-117.23356, 32.86859]}, "price": "$$", "categories": "restaurant, all"}, {"business_id": "0We4UffrQT9pQKQiHShkJQ", "name": "Farmer & The Seahorse", "address": "10996 Torreyana Rd ,Ste 240 ,San Diego, CA 92121", "city": "San Diego", "state": "CA", "postal_code": "92121", "latitude": 32.90476248793153, "longitude": -117.23955970478632, "stars": 4.0, "review_count": 894, "is_open": 1, "attributes": null, "tag": ["newamerican", "coffee", "breakfast_brunch"], "hours": {"Monday": ["0800", "1400"], "Tuesday": ["0800", "1400"], "Wednesday": ["0800", "1400"], "Thursday": ["0800", "1900"], "Friday": ["0800", "1900"], "Saturday": ["0930", "1400"], "Sunday": ["0930", "1400"]}, "location": {"type": "Point", "coordinates": [-117.23955970478632, 32.90476248793153]}, "price": "$$", "categories": "restaurant, all, food, food, food, coffee"}, {"business_id": "T0B4qwVYDTbbPNbbyK_80g", "name": "Snooze, an A.M. Eatery", "address": "8861 Villa La Jolla Dr ,Ste 509 ,San Diego, CA 92037", "city": "San Diego", "state": "CA", "postal_code": "92037", "latitude": 32.869456075325715, "longitude": -117.23249175437974, "stars": 4.0, "review_count": 1669, "is_open": 1, "attributes": null, "tag": ["breakfast_brunch", "tradamerican", "cocktailbars"], "hours": {"Monday": ["0630", "1430"], "Tuesday": ["0630", "1430"], "Wednesday": ["0630", "1430"], "Thursday": ["0630", "1430"], "Friday": ["0630", "1430"], "Saturday": ["0630", "1600"], "Sunday": ["0630", "1600"]}, "location": {"type": "Point", "coordinates": [-117.23249175437974, 32.869456075325715]}, "price": "$$", "categories": "restaurant, all"}, {"business_id": "W0r0OrTWNlfP_iR9D9wddw", "name": "Regents Pizzeria", "address": "4150 Regents Park Row ,Ste 100 ,San Diego, CA 92037", "city": "San Diego", "state": "CA", "postal_code": "92037", "latitude": 32.8734232036217, "longitude": -117.218049246696, "stars": 4.0, "review_count": 1802, "is_open": 1, "attributes": null, "tag": ["pizza", "italian", "tradamerican"], "hours": {"Monday": ["1100", "2200"], "Tuesday": ["1100", "2200"], "Wednesday": ["1100", "2200"], "Thursday": ["1100", "2200"], "Friday": ["1100", "2300"], "Saturday": ["1100", "2300"], "Sunday": ["1100", "2200"]}, "location": {"type": "Point", "coordinates": [-117.218049246696, 32.8734232036217]}, "price": "$$", "categories": "restaurant, all"}, {"business_id": "jtqKTsUHuAXYdadMVk1szQ", "name": "Eddie V's Prime Seafood", "address": "1270 Prospect St ,La Jolla, CA 92037", "city": "La Jolla", "state": "CA", "postal_code": "92037", "latitude": 32.84925078, "longitude": -117.2710302, "stars": 4.5, "review_count": 2134, "is_open": 1, "attributes": null, "tag": ["seafood", "steak", "lounges"], "hours": {"Monday": ["1600", "2100"], "Tuesday": ["1600", "2100"], "Wednesday": ["1600", "2100"], "Thursday": ["1600", "2100"], "Friday": ["1600", "2200"], "Saturday": ["1100", "2200"], "Sunday": ["1100", "2200"]}, "location": {"type": "Point", "coordinates": [-117.2710302, 32.84925078]}, "price": "$$$$", "categories": "restaurant, all"}, {"business_id": "p6ZcnE0MNgZdV7BWwfeaEQ", "name": "The Marine Room", "address": "2000 Spindrift Dr ,La Jolla, CA 92037", "city": "La Jolla", "state": "CA", "postal_code": "92037", "latitude": 32.8521918739646, "longitude": -117.260942459106, "stars": 4.0, "review_count": 1803, "is_open": 1, "attributes": null, "tag": ["seafood", "venues", "wine_bars"], "hours": {"Wednesday": ["1630", "2100"], "Thursday": ["1630", "2100"], "Friday": ["1630", "2100"], "Saturday": ["1630", "2100"], "Sunday": ["1630", "2100"]}, "location": {"type": "Point", "coordinates": [-117.260942459106, 32.8521918739646]}, "price": "$$$$", "categories": "restaurant, all"}, {"business_id": "dW9xa3BC8Ifa0uH_FT8N1Q", "name": "Sandpiper Wood Fired Grill & Oysters", "address": "2259 Avenida De La Playa ,La Jolla, CA 92037", "city": "La Jolla", "state": "CA", "postal_code": "92037", "latitude": 32.85357, "longitude": -117.25421, "stars": 4.5, "review_count": 132, "is_open": 1, "attributes": null, "tag": ["bars", "seafood"], "hours": {"Wednesday": ["1600", "2100"], "Thursday": ["1600", "2100"], "Friday": ["1100", "2100"], "Saturday": ["1100", "2100"], "Sunday": ["1600", "2100"]}, "location": {"type": "Point", "coordinates": [-117.25421, 32.85357]}, "price": null, "categories": "restaurant, all"}, {"business_id": "x0Lu3CxyGSnqhzCg6uYXqQ", "name": "Kinoyume Sushi & Grill", "address": "8843 Villa La Jolla Dr ,Unit 202 ,San Diego, CA 92037", "city": "San Diego", "state": "CA", "postal_code": "92037", "latitude": 32.8693019627181, "longitude": -117.231151587068, "stars": 4.0, "review_count": 612, "is_open": 1, "attributes": null, "tag": ["sushi", "japanese"], "hours": {"Monday": ["1100", "2130"], "Tuesday": ["1100", "2130"], "Wednesday": ["1100", "2130"], "Thursday": ["1100", "2130"], "Friday": ["1100", "2200"], "Saturday": ["1200", "2200"], "Sunday": ["1200", "2130"]}, "location": {"type": "Point", "coordinates": [-117.231151587068, 32.8693019627181]}, "price": "$$", "categories": "restaurant, all"}, {"business_id": "1zdYrGHbJSXYeODjYUteGA", "name": "Shore Rider", "address": "2168 Avenida De La Playa ,La Jolla, CA 92037", "city": "La Jolla", "state": "CA", "postal_code": "92037", "latitude": 32.85414, "longitude": -117.25628, "stars": 4.5, "review_count": 720, "is_open": 1, "attributes": null, "tag": ["seafood", "burgers", "cocktailbars"], "hours": {"Monday": ["1100", "2200"], "Tuesday": ["1100", "2200"], "Wednesday": ["1100", "2200"], "Thursday": ["1100", "2200"], "Friday": ["1100", "2200"], "Saturday": ["1100", "2200"], "Sunday": ["1100", "2200"]}, "location": {"type": "Point", "coordinates": [-117.25628, 32.85414]}, "price": "$$", "categories": "restaurant, all"}, {"business_id": "YL2cVfaA2N8cyuJSphynXw", "name": "moment sushi", "address": "9254 Scranton Rd ,Ste 101 ,San Diego, CA 92121", "city": "San Diego", "state": "CA", "postal_code": "92121", "latitude": 32.89082238376136, "longitude": -117.201604, "stars": 4.5, "review_count": 350, "is_open": 1, "attributes": null, "tag": ["japanese", "sushi"], "hours": {"Tuesday": ["1730", "2130"], "Wednesday": ["1730", "2130"], "Thursday": ["1730", "2130"], "Friday": ["1730", "2130"], "Saturday": ["1730", "2130"]}, "location": {"type": "Point", "coordinates": [-117.201604, 32.89082238376136]}, "price": null, "categories": "restaurant, all"}, {"business_id": "10blJmGIjsgNSMmSrWsc2A", "name": "Ramen Nagi", "address": "4301 La Jolla Village Dr ,San Diego, CA 92122", "city": "San Diego", "state": "CA", "postal_code": "92122", "latitude": 32.87221715415399, "longitude": -117.21296193008332, "stars": 4.5, "review_count": 349, "is_open": 1, "attributes": null, "tag": ["ramen"], "hours": {"Monday": ["1700", "2100"], "Tuesday": ["1700", "2100"], "Wednesday": ["1700", "2100"], "Thursday": ["1700", "2100"], "Friday": ["1700", "2100"], "Saturday": ["1700", "2100"], "Sunday": ["1700", "2100"]}, "location": {"type": "Point", "coordinates": [-117.21296193008332, 32.87221715415399]}, "price": "$$", "categories": "restaurant, all"}, {"business_id": "xZIJZGJY2cFzVjFuWPGRFg", "name": "Cutwater Spirits", "address": "9750 Distribution Ave ,San Diego, CA 92121", "city": "San Diego", "state": "CA", "postal_code": "92121", "latitude": 32.8844651893036, "longitude": -117.163705980307, "stars": 4.5, "review_count": 1335, "is_open": 1, "attributes": null, "tag": ["distilleries", "cocktailbars", "newamerican"], "hours": {"Monday": ["1100", "2100"], "Tuesday": ["1100", "2100"], "Wednesday": ["1100", "2100"], "Thursday": ["1100", "2100"], "Friday": ["1100", "2200"], "Saturday": ["1100", "2200"], "Sunday": ["1100", "1700"]}, "location": {"type": "Point", "coordinates": [-117.163705980307, 32.8844651893036]}, "price": "$$", "categories": "restaurant, all, food, food, food"}, {"business_id": "JFsj7COTX3JQg95nVSBVyg", "name": "Micheline's Pita House - La Jolla", "address": "4150 Regents Park Row ,Ste 120 ,La Jolla, CA 92037", "city": "La Jolla", "state": "CA", "postal_code": "92037", "latitude": 32.8733726194188, "longitude": -117.217741990213, "stars": 4.5, "review_count": 816, "is_open": 1, "attributes": null, "tag": ["mediterranean", "mideastern", "greek"], "hours": {"Monday": ["1100", "2100"], "Tuesday": ["1100", "2100"], "Wednesday": ["1100", "2100"], "Thursday": ["1100", "2100"], "Friday": ["1100", "2100"], "Saturday": ["1100", "2100"], "Sunday": ["1100", "2100"]}, "location": {"type": "Point", "coordinates": [-117.217741990213, 32.8733726194188]}, "price": "$$", "categories": "restaurant, all"}, {"business_id": "fMLfoBYVrV-PdOTTc3JLLQ", "name": "Catania", "address": "7863 Girard Ave ,La Jolla, CA 92037", "city": "La Jolla", "state": "CA", "postal_code": "92037", "latitude": 32.846544, "longitude": -117.274048, "stars": 4.5, "review_count": 1133, "is_open": 1, "attributes": null, "tag": ["pizza", "italian", "cocktailbars"], "hours": {"Monday": ["1600", "2030"], "Tuesday": ["1600", "2030"], "Wednesday": ["1600", "2030"], "Thursday": ["1600", "2030"], "Friday": ["1600", "2100"], "Saturday": ["1130", "2100"], "Sunday": ["1130", "2030"]}, "location": {"type": "Point", "coordinates": [-117.274048, 32.846544]}, "price": "$$", "categories": "restaurant, all"}, {"business_id": "LTxHx0Q7ENvREDiwzC-O4w", "name": "Poke Subarashi", "address": "7728 Regents Rd ,Ste 501 ,San Diego, CA 92122", "city": "San Diego", "state": "CA", "postal_code": "92122", "latitude": 32.8619197150993, "longitude": -117.224819924207, "stars": 4.5, "review_count": 747, "is_open": 1, "attributes": null, "tag": ["poke", "seafood"], "hours": {"Monday": ["1130", "2100"], "Tuesday": ["1130", "2100"], "Wednesday": ["1130", "2100"], "Thursday": ["1130", "2100"], "Friday": ["1130", "2100"], "Saturday": ["1130", "2100"], "Sunday": ["1130", "2100"]}, "location": {"type": "Point", "coordinates": [-117.224819924207, 32.8619197150993]}, "price": "$$", "categories": "restaurant, all, food, food, food"}, {"business_id": "wX3UDWN1hCmhae5HfvrXUQ", "name": "Chicago Fire Grill", "address": "8935 Towne Centre Dr ,Ste 109 ,San Diego, CA 92122", "city": "San Diego", "state": "CA", "postal_code": "92122", "latitude": 32.8677687998958, "longitude": -117.206104003634, "stars": 4.5, "review_count": 1203, "is_open": 1, "attributes": null, "tag": ["salad", "burgers", "sandwiches"], "hours": {"Monday": ["1100", "2000"], "Tuesday": ["1100", "2000"], "Wednesday": ["1100", "2000"], "Thursday": ["1100", "2000"], "Friday": ["1100", "2000"], "Saturday": ["1100", "2000"], "Sunday": ["1100", "2000"]}, "location": {"type": "Point", "coordinates": [-117.206104003634, 32.8677687998958]}, "price": "$", "categories": "restaurant, all"}, {"business_id": "_Z8zOOGGDOcpRQZgDBRehw", "name": "Bazille", "address": "4401 La Jolla Village Dr ,San Diego, CA 92122", "city": "San Diego", "state": "CA", "postal_code": "92122", "latitude": 32.87103818958149, "longitude": -117.21313469992045, "stars": 4.0, "review_count": 163, "is_open": 1, "attributes": null, "tag": ["newamerican", "cocktailbars"], "hours": {"Monday": ["1100", "1900"], "Tuesday": ["1100", "1900"], "Wednesday": ["1100", "1900"], "Thursday": ["1100", "1900"], "Friday": ["1100", "2000"], "Saturday": ["1100", "2000"], "Sunday": ["1100", "1800"]}, "location": {"type": "Point", "coordinates": [-117.21313469992045, 32.87103818958149]}, "price": "$$", "categories": "restaurant, all"}, {"business_id": "dBtZR2CB8PVxndyF6K2wAQ", "name": "The Taco Stand", "address": "621 Pearl St ,La Jolla, CA 92037", "city": "La Jolla", "state": "CA", "postal_code": "92037", "latitude": 32.8393664861151, "longitude": -117.276808878945, "stars": 4.5, "review_count": 4760, "is_open": 1, "attributes": null, "tag": ["foodstands", "mexican"], "hours": {"Monday": ["0900", "2100"], "Tuesday": ["0900", "2100"], "Wednesday": ["0900", "2100"], "Thursday": ["0900", "2100"], "Friday": ["0900", "2200"], "Saturday": ["0900", "2200"], "Sunday": ["0900", "2100"]}, "location": {"type": "Point", "coordinates": [-117.276808878945, 32.8393664861151]}, "price": "$", "categories": "restaurant, all"}, {"business_id": "gcppDopUEDLp1ieMn_SzCQ", "name": "Barbarella Restaurant & Bar", "address": "2171 Avenida De Ln ,Playa La Jolla, CA 92037", "city": "Playa La Jolla", "state": "CA", "postal_code": "92037", "latitude": 32.8536111, "longitude": -117.256125, "stars": 4.0, "review_count": 1323, "is_open": 1, "attributes": null, "tag": ["breakfast_brunch", "pizza", "modern_european"], "hours": {"Monday": ["1100", "2100"], "Tuesday": ["1100", "2100"], "Wednesday": ["1100", "2100"], "Thursday": ["1100", "2100"], "Friday": ["1100", "2200"], "Saturday": ["0900", "2200"], "Sunday": ["0900", "2100"]}, "location": {"type": "Point", "coordinates": [-117.256125, 32.8536111]}, "price": "$$", "categories": "restaurant, all"}, {"business_id": "9ZqZCqyNjZBbwPponSBQlA", "name": "Pacific Catch", "address": "4575 La Jolla Village Dr ,Ste 1160 ,San Diego, CA 92122", "city": "San Diego", "state": "CA", "postal_code": "92122", "latitude": 32.872403, "longitude": -117.208946, "stars": 4.0, "review_count": 470, "is_open": 1, "attributes": null, "tag": ["seafood", "sushi", "burgers"], "hours": {"Monday": ["1100", "2100"], "Tuesday": ["1100", "2100"], "Wednesday": ["1100", "2100"], "Thursday": ["1100", "2100"], "Friday": ["1100", "2200"], "Saturday": ["1100", "2200"], "Sunday": ["1100", "2100"]}, "location": {"type": "Point", "coordinates": [-117.208946, 32.872403]}, "price": "$$", "categories": "restaurant, all"}, {"business_id": "5JwXsM4HKoZRyL0R4WWXvA", "name": "Osteria Romantica", "address": "2151 Avenida De La Playa ,La Jolla, CA 92037", "city": "La Jolla", "state": "CA", "postal_code": "92037", "latitude": 32.8537692348557, "longitude": -117.256440147669, "stars": 4.0, "review_count": 713, "is_open": 1, "attributes": null, "tag": ["italian", "newamerican", "wine_bars"], "hours": {"Monday": ["1700", "2100"], "Tuesday": ["1700", "2100"], "Wednesday": ["1700", "2100"], "Thursday": ["1700", "2100"], "Friday": ["1200", "2130"], "Saturday": ["1200", "2130"], "Sunday": ["1200", "2100"]}, "location": {"type": "Point", "coordinates": [-117.256440147669, 32.8537692348557]}, "price": "$$", "categories": "restaurant, all"}, {"business_id": "zJw_uU-mRWqaYKFc0GznZw", "name": "Ridgewalk Social", "address": "10000 Hopkins Dr ,La Jolla, CA 92093", "city": "La Jolla", "state": "CA", "postal_code": "92093", "latitude": 32.885778872507125, "longitude": -117.24046050368108, "stars": 5.0, "review_count": 34, "is_open": 1, "attributes": null, "tag": ["burgers", "chicken_wings", "beerbar"], "hours": {"Monday": ["1030", "2100"], "Tuesday": ["1030", "2100"], "Wednesday": ["1030", "2100"], "Thursday": ["1030", "2100"], "Friday": ["1030", "2100"], "Saturday": ["1100", "1900"]}, "location": {"type": "Point", "coordinates": [-117.24046050368108, 32.885778872507125]}, "price": null, "categories": "restaurant, all"}, {"business_id": "fHgQTrSwNQFKyx9n4kknpw", "name": "Karl Strauss Brewing Company", "address": "9675 Scranton Rd ,San Diego, CA 92121", "city": "San Diego", "state": "CA", "postal_code": "92121", "latitude": 32.89654851274203, "longitude": -117.201764129432, "stars": 4.0, "review_count": 1647, "is_open": 1, "attributes": null, "tag": ["breweries", "newamerican"], "hours": {"Monday": ["1100", "2100"], "Tuesday": ["1100", "2100"], "Wednesday": ["1100", "2100"], "Thursday": ["1100", "2100"], "Friday": ["1100", "2200"], "Saturday": ["1100", "2200"], "Sunday": ["1100", "2100"]}, "location": {"type": "Point", "coordinates": [-117.201764129432, 32.89654851274203]}, "price": "$$", "categories": "restaurant, all, food, food, food"}, {"business_id": "Bk03sl0hNCAkpXjtZ9IVcA", "name": "The Kebab Shop", "address": "8657 Villa La Jolla Dr ,Ste 105 ,La Jolla, CA 92037", "city": "La Jolla", "state": "CA", "postal_code": "92037", "latitude": 32.86679390878509, "longitude": -117.23130408987132, "stars": 4.0, "review_count": 161, "is_open": 1, "attributes": null, "tag": ["mideastern", "mediterranean", "salad"], "hours": {"Monday": ["1030", "2200"], "Tuesday": ["1030", "2200"], "Wednesday": ["1030", "2200"], "Thursday": ["1030", "2200"], "Friday": ["1030", "2200"], "Saturday": ["1030", "2200"], "Sunday": ["1030", "2200"]}, "location": {"type": "Point", "coordinates": [-117.23130408987132, 32.86679390878509]}, "price": "$$", "categories": "restaurant, all"}, {"business_id": "U07qPvNkoF6Sipr33zOC7A", "name": "Bella Vista Social Club & Caff\u00e9", "address": "2880 Torrey Pines Scenic Dr ,San Diego, CA 92037", "city": "San Diego", "state": "CA", "postal_code": "92037", "latitude": 32.8891839815142, "longitude": -117.243999, "stars": 4.0, "review_count": 428, "is_open": 1, "attributes": null, "tag": ["italian", "cafes", "tapas"], "hours": {"Monday": ["0900", "1400"], "Tuesday": ["0900", "1400"], "Wednesday": ["0900", "1400"], "Thursday": ["0900", "1400"], "Friday": ["0900", "1400"]}, "location": {"type": "Point", "coordinates": [-117.243999, 32.8891839815142]}, "price": "$$", "categories": "restaurant, all"}, {"business_id": "1bBp7Cu-D6gbHjbZ70ZmVw", "name": "Caroline's Seaside Cafe by Giuseppe", "address": "8610 Charles F Kennel Way ,La Jolla, CA 92037", "city": "La Jolla", "state": "CA", "postal_code": "92037", "latitude": 32.8646064174275, "longitude": -117.254120260477, "stars": 3.5, "review_count": 1195, "is_open": 1, "attributes": null, "tag": ["cafes", "breakfast_brunch"], "hours": {"Monday": ["0800", "1500"], "Tuesday": ["0800", "1500"], "Wednesday": ["0800", "1500"], "Thursday": ["0800", "1500"], "Friday": ["0800", "1500"], "Saturday": ["0800", "1500"], "Sunday": ["0800", "1500"]}, "location": {"type": "Point", "coordinates": [-117.254120260477, 32.8646064174275]}, "price": "$$", "categories": "restaurant, all"}, {"business_id": "6utCiXqnaY5PfcmwDlRqcw", "name": "City Tacos", "address": "11045 Roselle St ,Ste 100 ,San Diego, CA 92121", "city": "San Diego", "state": "CA", "postal_code": "92121", "latitude": 32.904391174527774, "longitude": -117.2279020411044, "stars": 4.5, "review_count": 91, "is_open": 1, "attributes": null, "tag": ["tacos"], "hours": {"Monday": ["1030", "1530"], "Tuesday": ["1030", "1530"], "Wednesday": ["1030", "1530"], "Thursday": ["1030", "1530"], "Friday": ["1030", "1530"]}, "location": {"type": "Point", "coordinates": [-117.2279020411044, 32.904391174527774]}, "price": "$$", "categories": "restaurant, all"}, {"business_id": "KfkPjSTu0OV7yIPTZ4qi3w", "name": "The Cottage La Jolla", "address": "7702 Fay Ave ,La Jolla, CA 92037", "city": "La Jolla", "state": "CA", "postal_code": "92037", "latitude": 32.8434223, "longitude": -117.2749568, "stars": 4.0, "review_count": 4980, "is_open": 1, "attributes": null, "tag": ["newamerican", "breakfast_brunch"], "hours": {"Monday": ["0730", "1500"], "Tuesday": ["0730", "1500"], "Wednesday": ["0730", "1500"], "Thursday": ["0730", "1500"], "Friday": ["0730", "1600"], "Saturday": ["0730", "1600"], "Sunday": ["0730", "1500"]}, "location": {"type": "Point", "coordinates": [-117.2749568, 32.8434223]}, "price": "$$", "categories": "restaurant, all"}, {"business_id": "k12_4DxTw-TgmCxrOpAdww", "name": "California English", "address": "9276 Scranton Rd ,San Diego, CA 92121", "city": "San Diego", "state": "CA", "postal_code": "92121", "latitude": 32.891892, "longitude": -117.202497, "stars": 4.0, "review_count": 198, "is_open": 1, "attributes": null, "tag": ["british", "fishnchips", "newamerican"], "hours": {"Tuesday": ["1100", "2000"], "Wednesday": ["1100", "2000"], "Thursday": ["1100", "2000"], "Friday": ["1100", "2200"], "Saturday": ["1000", "2200"], "Sunday": ["1000", "1500"]}, "location": {"type": "Point", "coordinates": [-117.202497, 32.891892]}, "price": "$$$", "categories": "restaurant, all"}, {"business_id": "ORvtcDF7qtyJmKTinPlylQ", "name": "Gold Finch", "address": "3040 Science Park Rd ,San Diego, CA 92121", "city": "San Diego", "state": "CA", "postal_code": "92121", "latitude": 32.902541, "longitude": -117.239218, "stars": 4.5, "review_count": 78, "is_open": 1, "attributes": null, "tag": ["delis", "coffee", "breakfast_brunch"], "hours": {"Monday": ["0900", "1400"], "Tuesday": ["0900", "1400"], "Wednesday": ["0900", "1400"], "Thursday": ["0900", "1400"], "Friday": ["0900", "1400"]}, "location": {"type": "Point", "coordinates": [-117.239218, 32.902541]}, "price": "$$", "categories": "restaurant, all, food, food, food, coffee"}, {"business_id": "yfhGkDEZ0_TAV9ofsZEyxw", "name": "Daru Indian Gastropub", "address": "9430 Scranton Rd ,San Diego, CA 92121", "city": "San Diego", "state": "CA", "postal_code": "92121", "latitude": 32.893769, "longitude": -117.203142, "stars": 4.5, "review_count": 200, "is_open": 1, "attributes": null, "tag": ["indpak", "gastropubs", "beerbar"], "hours": {"Monday": ["1700", "2100"], "Tuesday": ["1700", "2100"], "Wednesday": ["1700", "2100"], "Thursday": ["1700", "2100"], "Friday": ["1700", "2100"], "Saturday": ["1700", "2100"], "Sunday": ["1700", "2100"]}, "location": {"type": "Point", "coordinates": [-117.203142, 32.893769]}, "price": "$$", "categories": "restaurant, all"}, {"business_id": "9cZzWOr80AnZvdEu1V7G7g", "name": "Puesto - La Jolla", "address": "1026 Wall St ,La Jolla, CA 92037", "city": "La Jolla", "state": "CA", "postal_code": "92037", "latitude": 32.8469845, "longitude": -117.2738202, "stars": 4.0, "review_count": 3396, "is_open": 1, "attributes": null, "tag": ["mexican", "bars", "desserts"], "hours": {"Monday": ["1100", "2100"], "Tuesday": ["1100", "2100"], "Wednesday": ["1100", "2100"], "Thursday": ["1100", "2100"], "Friday": ["1100", "2100"], "Saturday": ["1100", "2100"], "Sunday": ["1100", "2100"]}, "location": {"type": "Point", "coordinates": [-117.2738202, 32.8469845]}, "price": "$$", "categories": "restaurant, all, food, food, food"}, {"business_id": "z9NNt7sGKi6EaJqVrhiIWg", "name": "Mom's Pizza and Pasta", "address": "3422 Tripp Ct ,Ste A ,San Diego, CA 92121", "city": "San Diego", "state": "CA", "postal_code": "92121", "latitude": 32.915306, "longitude": -117.23446, "stars": 4.5, "review_count": 402, "is_open": 1, "attributes": null, "tag": ["pizza", "italian", "pastashops"], "hours": {"Monday": ["1600", "2000"], "Tuesday": ["1600", "2000"], "Wednesday": ["1600", "2000"], "Thursday": ["1600", "2000"], "Friday": ["1600", "2000"], "Saturday": ["1200", "2000"], "Sunday": ["1600", "2000"]}, "location": {"type": "Point", "coordinates": [-117.23446, 32.915306]}, "price": "$$", "categories": "restaurant, all, food, food, food"}, {"business_id": "iyLfem8zE0fLWTf-4WdqaA", "name": "Steamy Piggy", "address": "4681 Convoy St ,Ste A ,San Diego, CA 92111", "city": "San Diego", "state": "CA", "postal_code": "92111", "latitude": 32.82558093593696, "longitude": -117.15449932962656, "stars": 4.5, "review_count": 5211, "is_open": 1, "attributes": null, "tag": ["chinese", "asianfusion", "ramen"], "hours": {"Monday": ["1100", "2130"], "Tuesday": ["1100", "2130"], "Wednesday": ["1100", "2130"], "Thursday": ["1100", "2130"], "Friday": ["1100", "2230"], "Saturday": ["1100", "2230"], "Sunday": ["1100", "2130"]}, "location": {"type": "Point", "coordinates": [-117.15449932962656, 32.82558093593696]}, "price": "$$", "categories": "restaurant, all"}, {"business_id": "zpvpdmH2F4D1MtdV-GJkkQ", "name": "Piazza 1909", "address": "7731 Fay Ave ,San Diego, CA 92037", "city": "San Diego", "state": "CA", "postal_code": "92037", "latitude": 32.84401, "longitude": -117.27458, "stars": 4.5, "review_count": 706, "is_open": 1, "attributes": null, "tag": ["italian", "pizza", "venues"], "hours": {"Tuesday": ["1630", "2100"], "Wednesday": ["1630", "2100"], "Thursday": ["1630", "2100"], "Friday": ["1630", "2130"], "Saturday": ["1130", "2130"], "Sunday": ["1130", "2100"]}, "location": {"type": "Point", "coordinates": [-117.27458, 32.84401]}, "price": "$$$", "categories": "restaurant, all"}, {"business_id": "5GomNwbpxn2sW3UWuH4v1w", "name": "Banyan Kitchen & Cafe", "address": "4655 Executive Dr ,Ste 100 ,San Diego, CA 92121", "city": "San Diego", "state": "CA", "postal_code": "92121", "latitude": 32.87648287889922, "longitude": -117.20619030368964, "stars": 4.5, "review_count": 127, "is_open": 1, "attributes": null, "tag": ["breakfast_brunch", "cafes", "venues"], "hours": {"Monday": ["0800", "1500"], "Tuesday": ["0800", "1500"], "Wednesday": ["0800", "1500"], "Thursday": ["0800", "1500"], "Friday": ["0800", "1500"]}, "location": {"type": "Point", "coordinates": [-117.20619030368964, 32.87648287889922]}, "price": "$$", "categories": "restaurant, all"}, {"business_id": "zqhfpBmpJ0tYqSSv2e08lw", "name": "Joya Kitchen", "address": "10275 Science Center Dr ,Ste 150 ,San Diego, CA 92121", "city": "San Diego", "state": "CA", "postal_code": "92121", "latitude": 32.89151359320382, "longitude": -117.23052922636272, "stars": 4.5, "review_count": 48, "is_open": 1, "attributes": null, "tag": ["breakfast_brunch", "venues"], "hours": {"Monday": ["0800", "1500"], "Tuesday": ["0800", "1500"], "Wednesday": ["0800", "1500"], "Thursday": ["0800", "1900"], "Friday": ["0800", "1500"]}, "location": {"type": "Point", "coordinates": [-117.23052922636272, 32.89151359320382]}, "price": null, "categories": "restaurant, all"}, {"business_id": "wEfHbL93MSG2QzXFaiM0RQ", "name": "Sugar and Scribe ", "address": "7660 Fay Ave ,La Jolla, CA 92037", "city": "La Jolla", "state": "CA", "postal_code": "92037", "latitude": 32.8430306981685, "longitude": -117.275096358302, "stars": 4.5, "review_count": 2398, "is_open": 1, "attributes": null, "tag": ["bakeries", "cafes", "breakfast_brunch"], "hours": {"Monday": ["0700", "1430"], "Tuesday": ["0700", "1430"], "Wednesday": ["0700", "1430"], "Thursday": ["0700", "1430"], "Friday": ["0700", "1430"], "Saturday": ["0700", "1430"], "Sunday": ["0700", "1430"]}, "location": {"type": "Point", "coordinates": [-117.275096358302, 32.8430306981685]}, "price": "$$", "categories": "food, all"}, {"business_id": "MpBbBVux96dH36raE8mALQ", "name": "Ken Sushi Workshop", "address": "11375 El Camino Real ,San Diego, CA 92130", "city": "San Diego", "state": "CA", "postal_code": "92130", "latitude": 32.9264557231392, "longitude": -117.237016705725, "stars": 4.5, "review_count": 909, "is_open": 1, "attributes": null, "tag": ["japanese", "gourmet", "sushi"], "hours": {"Monday": ["1730", "2200"], "Tuesday": ["1730", "2200"], "Wednesday": ["1730", "2200"], "Thursday": ["1730", "2200"], "Friday": ["1730", "2200"], "Saturday": ["1730", "2200"]}, "location": {"type": "Point", "coordinates": [-117.237016705725, 32.9264557231392]}, "price": "$$$", "categories": "food, all"}, {"business_id": "lfMX3hf_shaUi5oDxaui2g", "name": "Bistro Du March\u00e9", "address": "7437 Girard Ave ,La Jolla, CA 92037", "city": "La Jolla", "state": "CA", "postal_code": "92037", "latitude": 32.839748, "longitude": -117.271904, "stars": 4.5, "review_count": 171, "is_open": 1, "attributes": null, "tag": ["french", "desserts", "bars"], "hours": {"Tuesday": ["1700", "2030"], "Wednesday": ["1700", "2030"], "Thursday": ["1700", "2030"], "Friday": ["1700", "2030"], "Saturday": ["1700", "2030"], "Sunday": ["0900", "1200"]}, "location": {"type": "Point", "coordinates": [-117.271904, 32.839748]}, "price": "$$$", "categories": "food, all"}, {"business_id": "giXLKUTTwTtfF0ff6p6EBQ", "name": "Luckybolt Kitchen + Bakery", "address": "10920 Roselle St ,Ste 104 ,San Diego, CA 92121", "city": "San Diego", "state": "CA", "postal_code": "92121", "latitude": 32.902484, "longitude": -117.225807, "stars": 4.5, "review_count": 92, "is_open": 1, "attributes": null, "tag": ["bakeries", "breakfast_brunch"], "hours": {"Monday": ["0800", "1400"], "Tuesday": ["0800", "1400"], "Wednesday": ["0800", "1400"], "Thursday": ["0800", "1400"], "Friday": ["0800", "1400"], "Saturday": ["0800", "1400"], "Sunday": ["0800", "1300"]}, "location": {"type": "Point", "coordinates": [-117.225807, 32.902484]}, "price": "$$", "categories": "food, all"}, {"business_id": "gCdoQ9XpXwoOJKVap1Zx3g", "name": "Pinpoint Cafe", "address": "8755 Biological Grade ,San Diego, CA 92037", "city": "San Diego", "state": "CA", "postal_code": "92037", "latitude": 32.8671461557669, "longitude": -117.252815493089, "stars": 4.5, "review_count": 107, "is_open": 1, "attributes": null, "tag": ["coffee", "acaibowls", "breakfast_brunch"], "hours": {"Monday": ["0730", "1500"], "Tuesday": ["0730", "1500"], "Wednesday": ["0730", "1500"], "Thursday": ["0730", "1500"], "Friday": ["0730", "1500"]}, "location": {"type": "Point", "coordinates": [-117.252815493089, 32.8671461557669]}, "price": "$", "categories": "food, all, coffee"}, {"business_id": "TAlarYnITGCgCjT8gO46rQ", "name": "Cote D'azur Restaurant", "address": "8935 Towne Centre Dr ,Ste 110 ,San Diego, CA 92122", "city": "San Diego", "state": "CA", "postal_code": "92122", "latitude": 32.86747, "longitude": -117.20612, "stars": 4.0, "review_count": 286, "is_open": 1, "attributes": null, "tag": ["breakfast_brunch", "french", "cakeshop"], "hours": {"Monday": ["0800", "2000"], "Tuesday": ["0800", "2000"], "Wednesday": ["0800", "2000"], "Thursday": ["0800", "2000"], "Friday": ["0800", "2100"], "Saturday": ["0800", "2100"], "Sunday": ["0800", "1500"]}, "location": {"type": "Point", "coordinates": [-117.20612, 32.86747]}, "price": "$$", "categories": "food, all"}, {"business_id": "daphbjvv6JyEG_LI3UzNGw", "name": "Trilogy Sanctuary", "address": "7650 Girard Ave ,Ste 400 ,La Jolla, CA 92037", "city": "La Jolla", "state": "CA", "postal_code": "92037", "latitude": 32.842989, "longitude": -117.27368, "stars": 4.5, "review_count": 942, "is_open": 1, "attributes": null, "tag": ["juicebars", "vegan", "yoga"], "hours": {"Monday": ["0800", "2030"], "Tuesday": ["0800", "2030"], "Wednesday": ["0800", "2030"], "Thursday": ["0800", "2030"], "Friday": ["0800", "2030"], "Saturday": ["0800", "2030"], "Sunday": ["0800", "2030"]}, "location": {"type": "Point", "coordinates": [-117.27368, 32.842989]}, "price": "$$", "categories": "food, all, fitness"}, {"business_id": "8TSEZZtcGsU3HRxYFw2M9w", "name": "BJ's Restaurant & Brewhouse", "address": "8785 Villa La Jolla Dr ,La Jolla, CA 92037", "city": "La Jolla", "state": "CA", "postal_code": "92037", "latitude": 32.86793, "longitude": -117.23312, "stars": 3.5, "review_count": 662, "is_open": 1, "attributes": null, "tag": ["pizza", "breweries", "tradamerican"], "hours": {"Monday": ["1100", "0000"], "Tuesday": ["1100", "0000"], "Wednesday": ["1100", "0000"], "Thursday": ["1100", "0000"], "Friday": ["1100", "0000"], "Saturday": ["1100", "0000"], "Sunday": ["1100", "0000"]}, "location": {"type": "Point", "coordinates": [-117.23312, 32.86793]}, "price": "$$", "categories": "food, all"}, {"business_id": "7YDTknOgRNJ8HNR1-M95rg", "name": "Cheese Shop", "address": "2165 Avenida De La Playa ,La Jolla, CA 92037", "city": "La Jolla", "state": "CA", "postal_code": "92037", "latitude": 32.85366148897816, "longitude": -117.256263777604, "stars": 4.0, "review_count": 575, "is_open": 1, "attributes": null, "tag": ["sandwiches", "coffee", "breakfast_brunch"], "hours": {"Monday": ["0800", "1600"], "Tuesday": ["0800", "1600"], "Wednesday": ["0800", "1600"], "Thursday": ["0800", "1600"], "Friday": ["0800", "1600"], "Saturday": ["0800", "1600"], "Sunday": ["0800", "1600"]}, "location": {"type": "Point", "coordinates": [-117.256263777604, 32.85366148897816]}, "price": "$$", "categories": "food, all, coffee"}, {"business_id": "QpRngYuOf6NGLbLScZde1w", "name": "Hawaiian Fresh Seafood At Centerpark Labs", "address": "6835 Flanders Dr ,San Diego, CA 92121", "city": "San Diego", "state": "CA", "postal_code": "92121", "latitude": 32.90263680038567, "longitude": -117.17587959753853, "stars": 4.5, "review_count": 808, "is_open": 1, "attributes": null, "tag": ["poke", "seafood", "burgers"], "hours": {"Monday": ["1000", "2000"], "Tuesday": ["1000", "2000"], "Wednesday": ["1000", "2000"], "Thursday": ["1000", "2000"], "Friday": ["1000", "2000"], "Saturday": ["1000", "2000"], "Sunday": ["1000", "2000"]}, "location": {"type": "Point", "coordinates": [-117.17587959753853, 32.90263680038567]}, "price": "$$", "categories": "food, all"}, {"business_id": "OyB0Kn1JBRBNgWVGS8CwTA", "name": "formoosa", "address": "4646 Convoy St ,San Diego, CA 92111", "city": "San Diego", "state": "CA", "postal_code": "92111", "latitude": 32.82461, "longitude": -117.15571, "stars": 4.5, "review_count": 3676, "is_open": 1, "attributes": null, "tag": ["taiwanese", "coffee", "noodles"], "hours": {"Monday": ["1100", "2130"], "Tuesday": ["1100", "2130"], "Wednesday": ["1100", "2130"], "Thursday": ["1100", "2130"], "Friday": ["1100", "2230"], "Saturday": ["1100", "2230"], "Sunday": ["1100", "2130"]}, "location": {"type": "Point", "coordinates": [-117.15571, 32.82461]}, "price": "$$", "categories": "food, all, coffee"}, {"business_id": "EjQAK1Vl_q9nTPhEBynG0g", "name": "El Pescador Fish Market & Restaurant", "address": "634 Pearl St ,La Jolla, CA 92037", "city": "La Jolla", "state": "CA", "postal_code": "92037", "latitude": 32.839775304608, "longitude": -117.276416898678, "stars": 4.0, "review_count": 1446, "is_open": 1, "attributes": null, "tag": ["seafood", "seafoodmarkets", "sandwiches"], "hours": {"Monday": ["1100", "2100"], "Tuesday": ["1100", "2100"], "Wednesday": ["1100", "2100"], "Thursday": ["1100", "2100"], "Friday": ["1100", "2100"], "Saturday": ["1100", "2100"], "Sunday": ["1100", "2100"]}, "location": {"type": "Point", "coordinates": [-117.276416898678, 32.839775304608]}, "price": "$$", "categories": "food, all"}, {"business_id": "UsBGSZmfUgz1wV8B0UELJA", "name": "Tajima Ramen Convoy", "address": "4681 Convoy St ,Ste I ,San Diego, CA 92111", "city": "San Diego", "state": "CA", "postal_code": "92111", "latitude": 32.825531, "longitude": -117.1544185, "stars": 4.0, "review_count": 4774, "is_open": 1, "attributes": null, "tag": ["ramen", "poke", "japacurry"], "hours": {"Monday": ["1130", "2200"], "Tuesday": ["1130", "2200"], "Wednesday": ["1130", "2200"], "Thursday": ["1130", "2200"], "Friday": ["1130", "2200"], "Saturday": ["1130", "2200"], "Sunday": ["1130", "2200"]}, "location": {"type": "Point", "coordinates": [-117.1544185, 32.825531]}, "price": "$$", "categories": "food, all"}, {"business_id": "qnH_8XayoYj-1okCCwyK3g", "name": "Zanzibar Cafe", "address": "9500 Gilman Dr ,The Loft ,La Jolla, CA 92093", "city": "La Jolla", "state": "CA", "postal_code": "92093", "latitude": 32.8799444627677, "longitude": -117.236101117722, "stars": 4.0, "review_count": 116, "is_open": 1, "attributes": null, "tag": ["coffee", "newamerican"], "hours": {"Monday": ["1000", "1500"], "Tuesday": ["1000", "1500"], "Wednesday": ["1000", "1500"], "Thursday": ["1000", "1500"], "Friday": ["1000", "1500"]}, "location": {"type": "Point", "coordinates": [-117.236101117722, 32.8799444627677]}, "price": "$$", "categories": "food, all, coffee"}, {"business_id": "VzxT5ji6RbwxN7dzlZMiBg", "name": "Parana Empanadas Argentinas - UTC", "address": "4545 La Jolla Village Dr ,Westfield UTC ,San Diego, CA 92122", "city": "San Diego", "state": "CA", "postal_code": "92122", "latitude": 32.869921, "longitude": -117.212722, "stars": 4.0, "review_count": 133, "is_open": 1, "attributes": null, "tag": ["argentine", "empanadas"], "hours": {"Monday": ["1000", "2100"], "Tuesday": ["1000", "2100"], "Wednesday": ["1000", "2100"], "Thursday": ["1000", "2100"], "Friday": ["1000", "2100"], "Saturday": ["1000", "2100"], "Sunday": ["1100", "1900"]}, "location": {"type": "Point", "coordinates": [-117.212722, 32.869921]}, "price": "$", "categories": "food, all"}, {"business_id": "lHQwshaGq6sOpkhOdllLrg", "name": "Philz Coffee", "address": "8849 Villa La Jolla Dr ,Ste 307 ,La Jolla, CA 92037", "city": "La Jolla", "state": "CA", "postal_code": "92037", "latitude": 32.86949480179109, "longitude": -117.2317396, "stars": 4.0, "review_count": 613, "is_open": 1, "attributes": null, "tag": ["coffee", "breakfast_brunch"], "hours": {"Monday": ["0500", "1930"], "Tuesday": ["0500", "1930"], "Wednesday": ["0500", "1930"], "Thursday": ["0500", "1930"], "Friday": ["0500", "2000"], "Saturday": ["0530", "2000"], "Sunday": ["0530", "2000"]}, "location": {"type": "Point", "coordinates": [-117.2317396, 32.86949480179109]}, "price": "$", "categories": "food, all, coffee"}, {"business_id": "TAoO-L2FHjkbw5ka6rWXBg", "name": "Jeffs' Beach Burgers", "address": "2134 Avenida De La Playa ,San Diego, CA 92037", "city": "San Diego", "state": "CA", "postal_code": "92037", "latitude": 32.8542164255099, "longitude": -117.2568886, "stars": 4.5, "review_count": 219, "is_open": 1, "attributes": null, "tag": ["burgers", "juicebars"], "hours": {"Monday": ["1130", "1900"], "Tuesday": ["1130", "1900"], "Wednesday": ["1130", "1900"], "Thursday": ["1130", "1900"], "Friday": ["1100", "1900"], "Saturday": ["1100", "1900"], "Sunday": ["1100", "1900"]}, "location": {"type": "Point", "coordinates": [-117.2568886, 32.8542164255099]}, "price": null, "categories": "food, all"}, {"business_id": "HclDpRJarqbGfFjJj4OrIg", "name": "The Corner Mercantile & Eatery", "address": "8080 La Jolla Shores Dr ,San Diego, CA 92037", "city": "San Diego", "state": "CA", "postal_code": "92037", "latitude": 32.85362, "longitude": -117.25417, "stars": 4.5, "review_count": 106, "is_open": 1, "attributes": null, "tag": ["coffee", "grocery", "sandwiches"], "hours": {"Monday": ["0800", "1800"], "Tuesday": ["0800", "1800"], "Wednesday": ["0800", "1800"], "Thursday": ["0800", "1800"], "Friday": ["0800", "1800"], "Saturday": ["0800", "1800"], "Sunday": ["0800", "1800"]}, "location": {"type": "Point", "coordinates": [-117.25417, 32.85362]}, "price": null, "categories": "food, all, coffee"}, {"business_id": "DyRjR955VS3paJZ2aHxm3g", "name": "Gravity Heights", "address": "9920 Pacific Heights Blvd ,San Diego, CA 92121", "city": "San Diego", "state": "CA", "postal_code": "92121", "latitude": 32.900653966414545, "longitude": -117.1912677092711, "stars": 4.0, "review_count": 931, "is_open": 1, "attributes": null, "tag": ["brewpubs", "breakfast_brunch", "sportsbars"], "hours": {"Monday": ["1130", "1900"], "Tuesday": ["1130", "2000"], "Wednesday": ["1130", "2000"], "Thursday": ["1130", "2100"], "Friday": ["1130", "2100"], "Saturday": ["1030", "2000"], "Sunday": ["1030", "1900"]}, "location": {"type": "Point", "coordinates": [-117.1912677092711, 32.900653966414545]}, "price": "$$", "categories": "food, all"}, {"business_id": "gNVBf2yvTwuMeV7Mdti4xg", "name": "isa.bella Pizza, Pasta, Craft Beer", "address": "4705 A Clairemont Drive ,Ste 817-041 ,San Diego, CA 92117", "city": "San Diego", "state": "CA", "postal_code": "92117", "latitude": 32.829757, "longitude": -117.204885, "stars": 4.5, "review_count": 848, "is_open": 1, "attributes": null, "tag": ["pizza", "italian", "pastashops"], "hours": {"Monday": ["1630", "2000"], "Tuesday": ["1630", "2000"], "Wednesday": ["1630", "2000"], "Thursday": ["1630", "2000"], "Friday": ["1630", "2030"], "Saturday": ["1600", "2030"], "Sunday": ["1600", "2000"]}, "location": {"type": "Point", "coordinates": [-117.204885, 32.829757]}, "price": "$$", "categories": "food, all"}, {"business_id": "2vJLKPgwQGQ61WymBy76JQ", "name": "Zumbar Coffee & Tea", "address": "10920 Roselle St ,Ste 106 ,San Diego, CA 92121", "city": "San Diego", "state": "CA", "postal_code": "92121", "latitude": 32.9020031655509, "longitude": -117.225558185472, "stars": 4.5, "review_count": 687, "is_open": 1, "attributes": null, "tag": ["coffee"], "hours": {"Monday": ["0630", "1600"], "Tuesday": ["0630", "1600"], "Wednesday": ["0630", "1600"], "Thursday": ["0630", "1600"], "Friday": ["0630", "1600"], "Saturday": ["0730", "1330"]}, "location": {"type": "Point", "coordinates": [-117.225558185472, 32.9020031655509]}, "price": "$$", "categories": "food, all, coffee"}, {"business_id": "scjUgGAOCMuje5R0UXNDSg", "name": "Shawarma Guys", "address": "3012 Grape St ,San Diego, CA 92102", "city": "San Diego", "state": "CA", "postal_code": "92102", "latitude": 32.72669, "longitude": -117.12987, "stars": 4.5, "review_count": 1264, "is_open": 1, "attributes": null, "tag": ["foodtrucks", "halal", "mediterranean"], "hours": {"Monday": ["1100", "2000"], "Tuesday": ["1100", "2000"], "Wednesday": ["1100", "2000"], "Thursday": ["1100", "2000"], "Friday": ["1100", "2000"], "Saturday": ["1100", "2000"]}, "location": {"type": "Point", "coordinates": [-117.12987, 32.72669]}, "price": "$$", "categories": "food, all"}, {"business_id": "LDWoHOXTTfr91Yn-eTxp2Q", "name": "The Art of Espresso", "address": "9500 Gilman Dr ,Mandeville Center ,San Diego, CA 92103", "city": "San Diego", "state": "CA", "postal_code": "92103", "latitude": 32.877638, "longitude": -117.239199, "stars": 4.5, "review_count": 215, "is_open": 1, "attributes": null, "tag": ["coffee", "breakfast_brunch", "foodstands"], "hours": {"Monday": ["0700", "1600"], "Tuesday": ["0700", "1600"], "Wednesday": ["0700", "1600"], "Thursday": ["0700", "1600"], "Friday": ["0700", "1600"]}, "location": {"type": "Point", "coordinates": [-117.239199, 32.877638]}, "price": "$", "categories": "food, all, coffee"}, {"business_id": "P-vsvygS_y2LLthLrGBIdg", "name": "Cake de Partie", "address": "4685 Convoy St ,Ste 110&120 ,San Diego, CA 92111", "city": "San Diego", "state": "CA", "postal_code": "92111", "latitude": 32.826, "longitude": -117.15416, "stars": 4.5, "review_count": 799, "is_open": 1, "attributes": null, "tag": ["coffee", "asianfusion", "desserts"], "hours": {"Wednesday": ["1100", "2100"], "Thursday": ["1100", "2100"], "Friday": ["1100", "2200"], "Saturday": ["1100", "2200"], "Sunday": ["1100", "2100"]}, "location": {"type": "Point", "coordinates": [-117.15416, 32.826]}, "price": "$$", "categories": "food, all, coffee"}, {"business_id": "kiCoQhOonDxH7sSeOQfHcw", "name": "We Olive & Wine Bar", "address": "1158 Prospect St ,La Jolla, CA 92037", "city": "La Jolla", "state": "CA", "postal_code": "92037", "latitude": 32.84884337030748, "longitude": -117.27314933939452, "stars": 4.5, "review_count": 383, "is_open": 1, "attributes": null, "tag": ["wine_bars", "oliveoil", "tapas"], "hours": {"Monday": ["1000", "2000"], "Tuesday": ["1000", "2000"], "Wednesday": ["1000", "2000"], "Thursday": ["1000", "2000"], "Friday": ["1000", "2100"], "Saturday": ["1000", "2100"], "Sunday": ["1000", "2000"]}, "location": {"type": "Point", "coordinates": [-117.27314933939452, 32.84884337030748]}, "price": "$$", "categories": "food, all"}, {"business_id": "nRGeqzFYKah-y47vB_TJXA", "name": "Seasurf Fish Co", "address": "2650 Del Mar Heights Rd ,Del Mar, CA 92014", "city": "Del Mar", "state": "CA", "postal_code": "92014", "latitude": 32.950635, "longitude": -117.246117, "stars": 4.5, "review_count": 972, "is_open": 1, "attributes": null, "tag": ["seafood", "poke", "sandwiches"], "hours": {"Monday": ["1100", "2000"], "Tuesday": ["1100", "2000"], "Wednesday": ["1100", "2000"], "Thursday": ["1100", "2000"], "Friday": ["1100", "2000"], "Saturday": ["1200", "2000"], "Sunday": ["1200", "2000"]}, "location": {"type": "Point", "coordinates": [-117.246117, 32.950635]}, "price": "$$", "categories": "food, all"}, {"business_id": "Sb7-_Yii2B0szEsLinFWtw", "name": "Poki One N Half", "address": "8657 Villa La Jolla Dr ,Ste 109 ,San Diego, CA 92037", "city": "San Diego", "state": "CA", "postal_code": "92037", "latitude": 32.86662154970703, "longitude": -117.2312967256797, "stars": 4.0, "review_count": 406, "is_open": 1, "attributes": null, "tag": ["poke", "hawaiian"], "hours": {"Monday": ["1100", "2200"], "Tuesday": ["1100", "2200"], "Wednesday": ["1100", "2200"], "Thursday": ["1100", "2200"], "Friday": ["1100", "2200"], "Saturday": ["1100", "2200"], "Sunday": ["1100", "2200"]}, "location": {"type": "Point", "coordinates": [-117.2312967256797, 32.86662154970703]}, "price": "$$", "categories": "food, all"}, {"business_id": "nIbyL580jzBbldd93YXg3g", "name": "Viewpoint Brewing", "address": "2201 San Dieguito Dr ,Ste D ,Del Mar, CA 92014", "city": "Del Mar", "state": "CA", "postal_code": "92014", "latitude": 32.969987, "longitude": -117.261947, "stars": 4.5, "review_count": 1100, "is_open": 1, "attributes": null, "tag": ["breweries", "salad", "newamerican"], "hours": {"Tuesday": ["1200", "2100"], "Wednesday": ["1200", "2100"], "Thursday": ["1200", "2100"], "Friday": ["1200", "2100"], "Saturday": ["1000", "2100"], "Sunday": ["1000", "2100"]}, "location": {"type": "Point", "coordinates": [-117.261947, 32.969987]}, "price": "$$", "categories": "food, all"}, {"business_id": "1Zx3bCuu7e8Wg2qxCKW6nA", "name": "Ballast Point Miramar", "address": "9045 Carroll Way ,San Diego, CA 92121", "city": "San Diego", "state": "CA", "postal_code": "92121", "latitude": 32.88807, "longitude": -117.15811, "stars": 4.0, "review_count": 2302, "is_open": 1, "attributes": null, "tag": ["newamerican", "breweries"], "hours": {"Monday": ["1100", "2000"], "Tuesday": ["1100", "2200"], "Wednesday": ["1100", "2200"], "Thursday": ["1100", "2200"], "Friday": ["1100", "2200"], "Saturday": ["1100", "2200"], "Sunday": ["1000", "2000"]}, "location": {"type": "Point", "coordinates": [-117.15811, 32.88807]}, "price": "$$", "categories": "food, all"}, {"business_id": "lJadbjV-B3HJmgtRN_unWw", "name": "Hanna's Creamery & Cafe", "address": "4485 La Jolla Village Dr ,Ste F-13 ,San Diego, CA 92122", "city": "San Diego", "state": "CA", "postal_code": "92122", "latitude": 32.870158, "longitude": -117.211322, "stars": 4.0, "review_count": 103, "is_open": 1, "attributes": null, "tag": ["icecream", "desserts", "cafes"], "hours": {"Monday": ["0900", "2000"], "Tuesday": ["0900", "2000"], "Wednesday": ["0900", "2000"], "Thursday": ["0900", "2000"], "Friday": ["0900", "2030"], "Saturday": ["0900", "2100"], "Sunday": ["0900", "1930"]}, "location": {"type": "Point", "coordinates": [-117.211322, 32.870158]}, "price": "$$", "categories": "food, all"}, {"business_id": "NhSslMhmZwGEfwt5Oj1fbQ", "name": "Bottega Italiana", "address": "4445 La Jolla Village Dr ,Ste H-17 ,San Diego, CA 92122", "city": "San Diego", "state": "CA", "postal_code": "92122", "latitude": 32.8706699020522, "longitude": -117.212021263767, "stars": 4.5, "review_count": 472, "is_open": 1, "attributes": null, "tag": ["gelato", "icecream"], "hours": {"Monday": ["1000", "2100"], "Tuesday": ["1000", "2100"], "Wednesday": ["1000", "2100"], "Thursday": ["1000", "2100"], "Friday": ["1000", "2130"], "Saturday": ["1000", "2130"], "Sunday": ["1030", "2100"]}, "location": {"type": "Point", "coordinates": [-117.212021263767, 32.8706699020522]}, "price": "$$", "categories": "food, all"}, {"business_id": "eaJCSBq0pyg6wxQ0EVPg3A", "name": "Corner House Cafe & Pizzeria", "address": "11815 Sorrento Valley Rd ,San Diego, CA 92121", "city": "San Diego", "state": "CA", "postal_code": "92121", "latitude": 32.91629647139932, "longitude": -117.23674495767072, "stars": 4.0, "review_count": 310, "is_open": 1, "attributes": null, "tag": ["sandwiches", "catering", "acaibowls"], "hours": {"Monday": ["0830", "1700"], "Tuesday": ["0830", "1700"], "Wednesday": ["0830", "1700"], "Thursday": ["0830", "1700"], "Friday": ["0830", "1700"], "Saturday": ["1100", "1500"]}, "location": {"type": "Point", "coordinates": [-117.23674495767072, 32.91629647139932]}, "price": "$", "categories": "food, all"}, {"business_id": "5fHbRGHeZ4zHGZHoxAdVpw", "name": "Barrio Donas", "address": "4714 Clairemont Mesa Blvd ,San Diego, CA 92117", "city": "San Diego", "state": "CA", "postal_code": "92117", "latitude": 32.83528, "longitude": -117.18927, "stars": 4.5, "review_count": 445, "is_open": 1, "attributes": null, "tag": ["donuts", "coffee", "breakfast_brunch"], "hours": {"Monday": ["0600", "1800"], "Tuesday": ["0600", "1800"], "Wednesday": ["0600", "1800"], "Thursday": ["0600", "1800"], "Friday": ["0600", "1800"], "Saturday": ["0600", "1500"], "Sunday": ["0700", "1500"]}, "location": {"type": "Point", "coordinates": [-117.18927, 32.83528]}, "price": "$", "categories": "food, all, coffee"}, {"business_id": "5Gs-EASahb5twxrJIWdgaA", "name": "Mrkt Space - La Jolla Shores", "address": "2202 Avenida De La Playa ,San Diego, CA 92037", "city": "San Diego", "state": "CA", "postal_code": "92037", "latitude": 32.853959522919524, "longitude": -117.25552250613468, "stars": 4.0, "review_count": 66, "is_open": 1, "attributes": null, "tag": ["cafes", "coffee", "convenience"], "hours": {"Monday": ["0700", "1800"], "Tuesday": ["0700", "1800"], "Wednesday": ["0700", "1800"], "Thursday": ["0700", "1800"], "Friday": ["0700", "1800"], "Saturday": ["0700", "1800"], "Sunday": ["0700", "1800"]}, "location": {"type": "Point", "coordinates": [-117.25552250613468, 32.853959522919524]}, "price": "$$", "categories": "food, all, coffee"}, {"business_id": "clrR8Ihd2Vzw12GmrCVSTA", "name": "Kazanori Pokemoon Express", "address": "4545 La Jolla Village Dr ,Ste FC-06 ,San Diego, CA 92122", "city": "San Diego", "state": "CA", "postal_code": "92122", "latitude": 32.87062890321036, "longitude": -117.21033894361368, "stars": 4.0, "review_count": 130, "is_open": 1, "attributes": null, "tag": ["poke", "hawaiian"], "hours": {"Monday": ["1100", "2000"], "Tuesday": ["1100", "2000"], "Wednesday": ["1100", "2000"], "Thursday": ["1100", "2000"], "Friday": ["1100", "2000"], "Saturday": ["1100", "2000"], "Sunday": ["1130", "1900"]}, "location": {"type": "Point", "coordinates": [-117.21033894361368, 32.87062890321036]}, "price": "$", "categories": "food, all"}, {"business_id": "CxO0pYax5wA32ma8VNxqdw", "name": "SOMISOMI", "address": "4577 La Jolla Village Dr ,San Diego, CA 92122", "city": "San Diego", "state": "CA", "postal_code": "92122", "latitude": 32.872347, "longitude": -117.208751, "stars": 4.5, "review_count": 79, "is_open": 1, "attributes": null, "tag": ["desserts", "korean", "icecream"], "hours": {"Monday": ["1100", "2200"], "Tuesday": ["1100", "2200"], "Wednesday": ["1100", "2200"], "Thursday": ["1100", "2200"], "Friday": ["1100", "2230"], "Saturday": ["1100", "2230"], "Sunday": ["1100", "2200"]}, "location": {"type": "Point", "coordinates": [-117.208751, 32.872347]}, "price": "$", "categories": "food, all"}, {"business_id": "sRTRE_pX9CfeFEPelWOW8g", "name": "Bobboi Natural Gelato", "address": "8008 Girard Ave ,La Jolla, CA 92037", "city": "La Jolla", "state": "CA", "postal_code": "92037", "latitude": 32.8481296978143, "longitude": -117.274364922946, "stars": 5.0, "review_count": 2428, "is_open": 1, "attributes": null, "tag": ["gelato", "icecream", "desserts"], "hours": {"Monday": ["1100", "2130"], "Tuesday": ["1100", "2130"], "Wednesday": ["1100", "2130"], "Thursday": ["1100", "2130"], "Friday": ["1100", "2200"], "Saturday": ["1100", "2200"], "Sunday": ["1100", "1700"]}, "location": {"type": "Point", "coordinates": [-117.274364922946, 32.8481296978143]}, "price": "$", "categories": "food, all"}, {"business_id": "A_TvqebtqHZAvQ9vuc5SSQ", "name": "Scoops La Jolla", "address": "2179 Avenida De La Playa ,La Jolla, CA 92037", "city": "La Jolla", "state": "CA", "postal_code": "92037", "latitude": 32.8536376, "longitude": -117.2559229, "stars": 4.5, "review_count": 293, "is_open": 1, "attributes": null, "tag": ["icecream", "creperies", "coffee"], "hours": {"Monday": ["1100", "2100"], "Tuesday": ["1100", "2100"], "Wednesday": ["1100", "2100"], "Thursday": ["1100", "2100"], "Friday": ["1100", "2200"], "Saturday": ["1100", "2200"], "Sunday": ["1100", "2100"]}, "location": {"type": "Point", "coordinates": [-117.2559229, 32.8536376]}, "price": "$", "categories": "food, all, coffee"}, {"business_id": "X3DgkjWqQWDezoSIVvgArw", "name": "Menya Ultra - San Diego", "address": "8199 Clairemont Mesa Blvd ,Ste M ,San Diego, CA 92111", "city": "San Diego", "state": "CA", "postal_code": "92111", "latitude": 32.83231, "longitude": -117.14709, "stars": 4.5, "review_count": 2389, "is_open": 1, "attributes": null, "tag": ["ramen", "noodles", "desserts"], "hours": {"Monday": ["1700", "2100"], "Tuesday": ["1700", "2100"], "Wednesday": ["1700", "2100"], "Thursday": ["1700", "2100"], "Friday": ["1700", "2100"], "Saturday": ["1700", "2100"], "Sunday": ["1700", "2100"]}, "location": {"type": "Point", "coordinates": [-117.14709, 32.83231]}, "price": "$$", "categories": "food, all"}, {"business_id": "zoaEXcBQ5KW_ChnrgdDo2g", "name": "The French Gourmet", "address": "960 Turquoise St ,San Diego, CA 92109", "city": "San Diego", "state": "CA", "postal_code": "92109", "latitude": 32.80955, "longitude": -117.25638, "stars": 4.0, "review_count": 999, "is_open": 1, "attributes": null, "tag": ["bakeries", "french"], "hours": {"Monday": ["0700", "1900"], "Tuesday": ["0700", "1900"], "Wednesday": ["0700", "2100"], "Thursday": ["0700", "2100"], "Friday": ["0700", "2100"], "Saturday": ["0700", "2100"], "Sunday": ["0700", "2100"]}, "location": {"type": "Point", "coordinates": [-117.25638, 32.80955]}, "price": "$$", "categories": "food, all"}, {"business_id": "RRFqbqeohgYA3EgLp5HT9g", "name": "Sorrento Deli Mart", "address": "10920 Roselle St ,Ste 109 ,San Diego, CA 92121", "city": "San Diego", "state": "CA", "postal_code": "92121", "latitude": 32.90217, "longitude": -117.225739, "stars": 4.0, "review_count": 132, "is_open": 1, "attributes": null, "tag": ["breakfast_brunch", "sandwiches", "juicebars"], "hours": {"Monday": ["0600", "1800"], "Tuesday": ["0600", "1800"], "Wednesday": ["0600", "1800"], "Thursday": ["0600", "1800"], "Friday": ["0600", "1800"], "Saturday": ["0900", "1400"]}, "location": {"type": "Point", "coordinates": [-117.225739, 32.90217]}, "price": "$", "categories": "food, all"}, {"business_id": "l-t2wjc6WttWflFcELRR9A", "name": "Wayfarer Bread & Pastry", "address": "5525 La Jolla Blvd ,San Diego, CA 92037", "city": "San Diego", "state": "CA", "postal_code": "92037", "latitude": 32.81302, "longitude": -117.26841, "stars": 4.5, "review_count": 631, "is_open": 1, "attributes": null, "tag": ["bakeries", "pizza", "sandwiches"], "hours": {"Tuesday": ["0830", "1430"], "Wednesday": ["0830", "1430"], "Thursday": ["0830", "1430"], "Friday": ["0830", "1430"], "Saturday": ["0830", "1430"], "Sunday": ["0830", "1430"]}, "location": {"type": "Point", "coordinates": [-117.26841, 32.81302]}, "price": "$", "categories": "food, all"}, {"business_id": "vYgUL-kZLwU2IEYeyn6xsg", "name": "David & Sons Fine Jewelers", "address": "4485 La Jolla Village Dr ,Ste F4 ,San Diego, CA 92122", "city": "San Diego", "state": "CA", "postal_code": "92122", "latitude": 32.870582, "longitude": -117.211157, "stars": 5.0, "review_count": 1328, "is_open": 1, "attributes": null, "tag": ["jewelry"], "hours": {"Monday": ["1100", "1800"], "Tuesday": ["1100", "1800"], "Wednesday": ["1100", "1800"], "Thursday": ["1100", "1800"], "Friday": ["1000", "1800"], "Saturday": ["1100", "1730"], "Sunday": ["1200", "1700"]}, "location": {"type": "Point", "coordinates": [-117.211157, 32.870582]}, "price": "$$", "categories": "shopping, all"}, {"business_id": "D9NepgtGl_UC3qPCdLqvMg", "name": "Everyday California", "address": "2261 Avenida De La Playa ,La Jolla, CA 92037", "city": "La Jolla", "state": "CA", "postal_code": "92037", "latitude": 32.85357, "longitude": -117.25418, "stars": 4.5, "review_count": 3133, "is_open": 1, "attributes": null, "tag": ["rafting", "surfschools", "surfshop"], "hours": {"Monday": ["0800", "1700"], "Tuesday": ["0800", "1700"], "Wednesday": ["0800", "1700"], "Thursday": ["0800", "1700"], "Friday": ["0800", "1700"], "Saturday": ["0800", "1800"], "Sunday": ["0800", "1800"]}, "location": {"type": "Point", "coordinates": [-117.25418, 32.85357]}, "price": "$$", "categories": "shopping, all"}, {"business_id": "87q7Zb6tUkYZMHrUWxc2LA", "name": "Torrey Holistics", "address": "10671 Roselle St ,Ste 100 ,San Diego, CA 92121", "city": "San Diego", "state": "CA", "postal_code": "92121", "latitude": 32.89817, "longitude": -117.221887, "stars": 4.5, "review_count": 626, "is_open": 1, "attributes": null, "tag": ["cannabisdispensaries"], "hours": {"Monday": ["0700", "2100"], "Tuesday": ["0700", "2100"], "Wednesday": ["0700", "2100"], "Thursday": ["0700", "2100"], "Friday": ["0700", "2100"], "Saturday": ["0700", "2100"], "Sunday": ["0700", "2100"]}, "location": {"type": "Point", "coordinates": [-117.221887, 32.89817]}, "price": "$$", "categories": "shopping, all"}, {"business_id": "F9pqeFiVVajnCIF_2YKSzQ", "name": "Surf Diva Surf School", "address": "2160 Avenida De La Playa ,La Jolla, CA 92037", "city": "La Jolla", "state": "CA", "postal_code": "92037", "latitude": 32.8542016108066, "longitude": -117.2564873, "stars": 4.5, "review_count": 303, "is_open": 1, "attributes": null, "tag": ["surfshop", "surfschools", "beachequipmentrental"], "hours": {"Monday": ["0830", "1730"], "Tuesday": ["0830", "1730"], "Wednesday": ["0830", "1730"], "Thursday": ["0830", "1730"], "Friday": ["0830", "1730"], "Saturday": ["0830", "1730"], "Sunday": ["0830", "1730"]}, "location": {"type": "Point", "coordinates": [-117.2564873, 32.8542016108066]}, "price": "$$", "categories": "shopping, all"}, {"business_id": "79tSfuPyTCgJVmZaaPXlYg", "name": "Golden Triangle Self Storage", "address": "10345 Sorrento Valley Rd ,San Diego, CA 92121", "city": "San Diego", "state": "CA", "postal_code": "92121", "latitude": 32.8912779, "longitude": -117.2110678, "stars": 5.0, "review_count": 190, "is_open": 1, "attributes": null, "tag": ["selfstorage", "packingsupplies"], "hours": {"Monday": ["1000", "2000"], "Tuesday": ["1000", "2000"], "Wednesday": ["1000", "2000"], "Thursday": ["1000", "2000"], "Friday": ["1000", "2000"], "Saturday": ["1000", "1800"], "Sunday": ["1000", "1800"]}, "location": {"type": "Point", "coordinates": [-117.2110678, 32.8912779]}, "price": "$$", "categories": "shopping, all"}, {"business_id": "H4ekdxAIxBTbDxDlR6U6PA", "name": "Krasner Jewelers", "address": "3262 Holiday Ct ,Ste 205 ,La Jolla, CA 92037", "city": "La Jolla", "state": "CA", "postal_code": "92037", "latitude": 32.871357, "longitude": -117.232692, "stars": 5.0, "review_count": 115, "is_open": 1, "attributes": null, "tag": ["jewelry", "jewelryrepair"], "hours": {"Monday": ["1000", "1700"], "Tuesday": ["1000", "1700"], "Wednesday": ["1000", "1700"], "Thursday": ["1000", "1700"], "Friday": ["1000", "1700"]}, "location": {"type": "Point", "coordinates": [-117.232692, 32.871357]}, "price": "$$", "categories": "shopping, all"}, {"business_id": "cYgXQjFyoQuv7RKiC9cOzQ", "name": "iTech iPhone & MacBook Repair", "address": "5933 Balboa Ave ,San Diego, CA 92111", "city": "San Diego", "state": "CA", "postal_code": "92111", "latitude": 32.819065545514, "longitude": -117.177172695597, "stars": 5.0, "review_count": 706, "is_open": 1, "attributes": null, "tag": ["mobilephonerepair", "datarecovery", "cellphoneaccessories"], "hours": {"Monday": ["1000", "1800"], "Tuesday": ["1000", "1800"], "Wednesday": ["1000", "1800"], "Thursday": ["1000", "1800"], "Friday": ["1000", "1800"], "Saturday": ["1000", "1600"]}, "location": {"type": "Point", "coordinates": [-117.177172695597, 32.819065545514]}, "price": "$$", "categories": "shopping, all"}, {"business_id": "qCE4bSoeDpJPI4QxfW89jw", "name": "Cycle Quest", "address": "10920 Roselle St ,Ste 107 ,San Diego, CA 92121", "city": "San Diego", "state": "CA", "postal_code": "92121", "latitude": 32.901959, "longitude": -117.225605, "stars": 4.5, "review_count": 62, "is_open": 1, "attributes": null, "tag": ["bikes", "bike_repair_maintenance"], "hours": {"Monday": ["1000", "1800"], "Tuesday": ["1000", "1800"], "Wednesday": ["1000", "1800"], "Thursday": ["1000", "1800"], "Friday": ["1000", "1800"], "Saturday": ["1000", "1700"]}, "location": {"type": "Point", "coordinates": [-117.225605, 32.901959]}, "price": "$$", "categories": "shopping, all"}, {"business_id": "qvC_iqH7yNFjoxonBf_PAA", "name": "J. Wiesner, Private Jeweler", "address": "4225 Executive Square ,Ste 600 ,La Jolla, CA 92037", "city": "La Jolla", "state": "CA", "postal_code": "92037", "latitude": 32.8740374743938, "longitude": -117.215435430408, "stars": 5.0, "review_count": 48, "is_open": 1, "attributes": null, "tag": ["jewelry"], "hours": {"Monday": ["1000", "1700"], "Tuesday": ["1000", "1700"], "Wednesday": ["1000", "1700"], "Thursday": ["1000", "1700"], "Friday": ["1000", "1400"]}, "location": {"type": "Point", "coordinates": [-117.215435430408, 32.8740374743938]}, "price": null, "categories": "shopping, all"}, {"business_id": "m3g2GCFnLpC9FyIfOUEiZA", "name": "Sorrento Valley Self Storage", "address": "10531 Sorrento Valley Rd ,San Diego, CA 92121", "city": "San Diego", "state": "CA", "postal_code": "92121", "latitude": 32.8965182, "longitude": -117.2184407, "stars": 4.5, "review_count": 115, "is_open": 1, "attributes": null, "tag": ["selfstorage", "packingsupplies"], "hours": {"Monday": ["1000", "2000"], "Tuesday": ["1000", "2000"], "Wednesday": ["1000", "2000"], "Thursday": ["1000", "2000"], "Friday": ["1000", "2000"], "Saturday": ["1000", "1800"], "Sunday": ["1000", "1800"]}, "location": {"type": "Point", "coordinates": [-117.2184407, 32.8965182]}, "price": "$$", "categories": "shopping, all"}, {"business_id": "jzsBiWIRvBcHxp4QIvkBxA", "name": "Sweet Floral", "address": "11696 Sorrento Valley Rd ,San Diego, CA 92121", "city": "San Diego", "state": "CA", "postal_code": "92121", "latitude": 32.913330078125, "longitude": -117.233924865723, "stars": 5.0, "review_count": 123, "is_open": 1, "attributes": null, "tag": ["florists"], "hours": {"Monday": ["0900", "1600"], "Tuesday": ["0900", "1700"], "Wednesday": ["0900", "1700"], "Thursday": ["0900", "1700"], "Friday": ["0900", "1700"]}, "location": {"type": "Point", "coordinates": [-117.233924865723, 32.913330078125]}, "price": "$$", "categories": "shopping, all"}, {"business_id": "G7nWap1xYaE416ZPci1GZg", "name": "Charles Koll jewellers", "address": "11015 Sorrento Valley Rd ,San Diego, CA 92121", "city": "San Diego", "state": "CA", "postal_code": "92121", "latitude": 32.90180016001061, "longitude": -117.22331759726788, "stars": 4.5, "review_count": 137, "is_open": 1, "attributes": null, "tag": ["jewelry"], "hours": {"Tuesday": ["1000", "1900"], "Wednesday": ["1000", "1900"], "Thursday": ["1000", "1900"], "Friday": ["1000", "1900"], "Saturday": ["1000", "1900"]}, "location": {"type": "Point", "coordinates": [-117.22331759726788, 32.90180016001061]}, "price": "$$$", "categories": "shopping, all"}, {"business_id": "wQULl-D35wFeUIGvaoP67w", "name": "Backyard X-Scapes", "address": "10835 Sorrento Valley Rd ,San Diego, CA 92121", "city": "San Diego", "state": "CA", "postal_code": "92121", "latitude": 32.900414, "longitude": -117.221564, "stars": 4.5, "review_count": 38, "is_open": 1, "attributes": null, "tag": ["homedecor", "outdoorfurniture"], "hours": {"Tuesday": ["0800", "1630"], "Wednesday": ["0800", "1630"], "Thursday": ["0800", "1630"], "Friday": ["0800", "1630"], "Saturday": ["0900", "1700"]}, "location": {"type": "Point", "coordinates": [-117.221564, 32.900414]}, "price": "$$", "categories": "shopping, all"}, {"business_id": "2gWX1gPdmcHSmvUsGrWWPg", "name": "Westfield University Town Center", "address": "4545 La Jolla Village Dr ,Ste E-25 ,San Diego, CA 92122", "city": "San Diego", "state": "CA", "postal_code": "92122", "latitude": 32.87170740000001, "longitude": -117.2093505, "stars": 3.5, "review_count": 808, "is_open": 1, "attributes": null, "tag": ["shoppingcenters"], "hours": {"Monday": ["1000", "2000"], "Tuesday": ["1000", "2000"], "Wednesday": ["1000", "2000"], "Thursday": ["1000", "2000"], "Friday": ["1000", "2000"], "Saturday": ["1000", "2000"], "Sunday": ["1100", "1900"]}, "location": {"type": "Point", "coordinates": [-117.2093505, 32.87170740000001]}, "price": "$$", "categories": "shopping, all"}, {"business_id": "Q7M6gFbfxvlWfOPDuZDSpw", "name": "Amini & Co Fine Jewelry", "address": "4305 La Jolla Village Dr ,Ste 2400 ,San Diego, CA 92122", "city": "San Diego", "state": "CA", "postal_code": "92122", "latitude": 32.870642, "longitude": -117.212178, "stars": 4.5, "review_count": 33, "is_open": 1, "attributes": null, "tag": ["jewelry", "watches", "gemstonesandminerals"], "hours": {"Monday": ["1000", "1900"], "Tuesday": ["1000", "1900"], "Wednesday": ["1000", "1900"], "Thursday": ["1000", "1900"], "Friday": ["1000", "1900"], "Saturday": ["1000", "1900"], "Sunday": ["1100", "1800"]}, "location": {"type": "Point", "coordinates": [-117.212178, 32.870642]}, "price": null, "categories": "shopping, all"}, {"business_id": "9CftIgyW8O8xXO9CJy-9Ew", "name": "Mejuri", "address": "4545 La Jolla Village Dr ,Ste C-12 ,San Diego, CA 92122", "city": "San Diego", "state": "CA", "postal_code": "92122", "latitude": 32.8700899, "longitude": -117.212053, "stars": 4.5, "review_count": 62, "is_open": 1, "attributes": null, "tag": ["jewelry"], "hours": {"Monday": ["1000", "2000"], "Tuesday": ["1000", "2000"], "Wednesday": ["1000", "2000"], "Thursday": ["1000", "2000"], "Friday": ["1000", "2000"], "Saturday": ["1000", "2000"], "Sunday": ["1100", "1900"]}, "location": {"type": "Point", "coordinates": [-117.212053, 32.8700899]}, "price": "$$", "categories": "shopping, all"}, {"business_id": "jeZayOMXs2MUSpt6dFHyNQ", "name": "World Market", "address": "8657 Villa La Jolla Dr ,Ste 117 ,La Jolla, CA 92037", "city": "La Jolla", "state": "CA", "postal_code": "92037", "latitude": 32.865499, "longitude": -117.231729, "stars": 4.0, "review_count": 147, "is_open": 1, "attributes": null, "tag": ["furniture", "homedecor", "beer_and_wine"], "hours": {"Monday": ["1000", "2000"], "Tuesday": ["1000", "2000"], "Wednesday": ["1000", "2000"], "Thursday": ["1000", "2000"], "Friday": ["1000", "2000"], "Saturday": ["1000", "2000"], "Sunday": ["1100", "1800"]}, "location": {"type": "Point", "coordinates": [-117.231729, 32.865499]}, "price": "$$", "categories": "shopping, all"}, {"business_id": "yfgYdGrgQR2RrmpcHDwBRg", "name": "Timeless Blossoms", "address": "9135 Judicial Dr ,Ste C ,La Jolla Crossroads ,San Diego, CA 92122", "city": "San Diego", "state": "CA", "postal_code": "92122", "latitude": 32.873403, "longitude": -117.203025, "stars": 5.0, "review_count": 132, "is_open": 1, "attributes": null, "tag": ["florists", "floraldesigners"], "hours": {"Monday": ["0900", "1400"], "Tuesday": ["0900", "1400"], "Wednesday": ["0900", "1400"], "Thursday": ["0900", "1400"], "Friday": ["0900", "1400"]}, "location": {"type": "Point", "coordinates": [-117.203025, 32.873403]}, "price": "$$", "categories": "shopping, all"}, {"business_id": "gvWPk-Tb_Ee7r5_Br8LI2A", "name": "UC Cyclery", "address": "8715 Villa La Jolla Dr ,Ste B ,La Jolla, CA 92037", "city": "La Jolla", "state": "CA", "postal_code": "92037", "latitude": 32.8670941, "longitude": -117.2331224, "stars": 4.0, "review_count": 250, "is_open": 1, "attributes": null, "tag": ["bikes", "bike_repair_maintenance", "sportswear"], "hours": {"Monday": ["1000", "1800"], "Tuesday": ["1000", "1800"], "Wednesday": ["1000", "1800"], "Thursday": ["1000", "1800"], "Friday": ["1000", "1800"], "Saturday": ["1000", "1800"]}, "location": {"type": "Point", "coordinates": [-117.2331224, 32.8670941]}, "price": "$$", "categories": "shopping, all"}, {"business_id": "914Mw9QBZTdYqRD75ntHVQ", "name": "California Sock Company", "address": "1025 Prospect St ,Ste 150 ,La Jolla, CA 92037", "city": "La Jolla", "state": "CA", "postal_code": "92037", "latitude": 32.84761527898429, "longitude": -117.27416064885324, "stars": 5.0, "review_count": 145, "is_open": 1, "attributes": null, "tag": ["accessories", "giftshops", "womenscloth"], "hours": {"Monday": ["1100", "1900"], "Tuesday": ["1100", "1900"], "Wednesday": ["1100", "1900"], "Thursday": ["1100", "1900"], "Friday": ["1100", "1900"], "Saturday": ["1100", "1900"], "Sunday": ["1100", "1900"]}, "location": {"type": "Point", "coordinates": [-117.27416064885324, 32.84761527898429]}, "price": "$$", "categories": "shopping, all"}, {"business_id": "tYgN3Octlwt_g5c5JvZJeA", "name": "MedMen - Kearny Mesa", "address": "5125 Convoy St ,San Diego, CA 92111", "city": "San Diego", "state": "CA", "postal_code": "92111", "latitude": 32.89883263394302, "longitude": -117.22040499756989, "stars": 4.0, "review_count": 280, "is_open": 1, "attributes": null, "tag": ["cannabisdispensaries", "cannabis_clinics"], "hours": {"Monday": ["0800", "2100"], "Tuesday": ["0800", "2100"], "Wednesday": ["0800", "2100"], "Thursday": ["0800", "2100"], "Friday": ["0800", "2100"], "Saturday": ["0800", "2100"], "Sunday": ["0800", "2100"]}, "location": {"type": "Point", "coordinates": [-117.22040499756989, 32.89883263394302]}, "price": "$$", "categories": "shopping, all"}, {"business_id": "XUZ6UbURgoYh_paHbCmUtw", "name": "Smoking Section Smoke Shop", "address": "6904 Miramar Rd ,Ste 208 ,San Diego, CA 92121", "city": "San Diego", "state": "CA", "postal_code": "92121", "latitude": 32.8792, "longitude": -117.16743, "stars": 5.0, "review_count": 345, "is_open": 1, "attributes": null, "tag": ["tobaccoshops", "vapeshops", "headshops"], "hours": {"Monday": ["0900", "2200"], "Tuesday": ["0900", "2200"], "Wednesday": ["0900", "2200"], "Thursday": ["0900", "2200"], "Friday": ["0900", "2200"], "Saturday": ["0900", "2200"], "Sunday": ["0900", "2100"]}, "location": {"type": "Point", "coordinates": [-117.16743, 32.8792]}, "price": "$$", "categories": "shopping, all"}, {"business_id": "UHbDTuR17s89CmcqlN9wlw", "name": "Warby Parker UTC", "address": "4465 La Jolla Village Dr ,Ste H5 ,San Diego, CA 92122", "city": "San Diego", "state": "CA", "postal_code": "92122", "latitude": 32.871659324653734, "longitude": -117.2116588, "stars": 4.5, "review_count": 131, "is_open": 1, "attributes": null, "tag": ["opticians", "optometrists"], "hours": {"Monday": ["1000", "2000"], "Tuesday": ["1000", "2000"], "Wednesday": ["1000", "2000"], "Thursday": ["1000", "2000"], "Friday": ["1000", "2000"], "Saturday": ["1000", "2000"], "Sunday": ["1100", "1900"]}, "location": {"type": "Point", "coordinates": [-117.2116588, 32.871659324653734]}, "price": "$$", "categories": "shopping, all"}, {"business_id": "rQLleKvvsebxcx3ALzYfiQ", "name": "Suitsupply", "address": "4303 La Jolla Village Dr ,Space 2125 ,San Diego, CA 92122", "city": "San Diego", "state": "CA", "postal_code": "92122", "latitude": 32.8716181631894, "longitude": -117.2130368, "stars": 4.5, "review_count": 69, "is_open": 1, "attributes": null, "tag": ["menscloth", "bespoke", "formalwear"], "hours": {"Monday": ["1000", "2000"], "Tuesday": ["1000", "2000"], "Wednesday": ["1000", "2000"], "Thursday": ["1000", "2000"], "Friday": ["1000", "2000"], "Saturday": ["1000", "2000"], "Sunday": ["1100", "2000"]}, "location": {"type": "Point", "coordinates": [-117.2130368, 32.8716181631894]}, "price": "$$", "categories": "shopping, all"}, {"business_id": "fvaLS4SpeZZ5t06JIYU8Sw", "name": "Vape Smoke Universe - Miramar", "address": "7190 Miramar Rd ,Ste 111 ,San Diego, CA 92121", "city": "San Diego", "state": "CA", "postal_code": "92121", "latitude": 32.8815045, "longitude": -117.1585268, "stars": 4.5, "review_count": 165, "is_open": 1, "attributes": null, "tag": ["vapeshops", "tobaccoshops", "headshops"], "hours": {"Monday": ["0900", "2300"], "Tuesday": ["0900", "2300"], "Wednesday": ["0900", "2300"], "Thursday": ["0900", "2300"], "Friday": ["0900", "2300"], "Saturday": ["0900", "2300"], "Sunday": ["0900", "2300"]}, "location": {"type": "Point", "coordinates": [-117.1585268, 32.8815045]}, "price": "$", "categories": "shopping, all"}, {"business_id": "WcDc13UQ7Qvuo14a-b2GqQ", "name": "Gartner & Galstian Vision Care", "address": "7770 Regents Rd ,Ste 104 ,San Diego, CA 92122", "city": "San Diego", "state": "CA", "postal_code": "92122", "latitude": 32.862774, "longitude": -117.22432, "stars": 4.5, "review_count": 144, "is_open": 1, "attributes": null, "tag": ["optometrists", "opticians"], "hours": {"Monday": ["0900", "1730"], "Tuesday": ["0900", "1730"], "Wednesday": ["0900", "1700"], "Thursday": ["0900", "1730"], "Friday": ["0900", "1700"]}, "location": {"type": "Point", "coordinates": [-117.22432, 32.862774]}, "price": "$$", "categories": "shopping, all"}, {"business_id": "cxXRz6OAplA8wcDbpPni7w", "name": "Paper Source", "address": "8843 Villa La Jolla Dr ,Ste 204 ,La Jolla, CA 92037", "city": "La Jolla", "state": "CA", "postal_code": "92037", "latitude": 32.869491, "longitude": -117.231285, "stars": 4.0, "review_count": 81, "is_open": 1, "attributes": null, "tag": ["stationery", "giftshops"], "hours": {"Monday": ["1000", "1900"], "Tuesday": ["1000", "1900"], "Wednesday": ["1000", "2000"], "Friday": ["1000", "2000"], "Saturday": ["1000", "2000"], "Sunday": ["1100", "1800"]}, "location": {"type": "Point", "coordinates": [-117.231285, 32.869491]}, "price": "$$", "categories": "shopping, all"}, {"business_id": "ezCl8yawiKDVbrRlEtYg_A", "name": "Cannabis 21+ - Sorrento Valley", "address": "10150 Sorrento Valley Rd ,#110 ,San Diego, CA 92121", "city": "San Diego", "state": "CA", "postal_code": "92121", "latitude": 32.88916, "longitude": -117.2084, "stars": 4.5, "review_count": 33, "is_open": 1, "attributes": null, "tag": ["cannabisdispensaries"], "hours": {"Monday": ["0900", "2100"], "Tuesday": ["0900", "2100"], "Wednesday": ["0900", "2100"], "Thursday": ["0900", "2100"], "Friday": ["0900", "2100"], "Saturday": ["0900", "2100"], "Sunday": ["0900", "2100"]}, "location": {"type": "Point", "coordinates": [-117.2084, 32.88916]}, "price": "$$", "categories": "shopping, all"}, {"business_id": "jKlFcVnCSaFMj4wxBcFhDQ", "name": "The Gun Range San Diego", "address": "7853 Balboa Ave ,San Diego, CA 92111", "city": "San Diego", "state": "CA", "postal_code": "92111", "latitude": 32.82125, "longitude": -117.1535, "stars": 4.5, "review_count": 921, "is_open": 1, "attributes": null, "tag": ["guns_and_ammo", "gun_ranges"], "hours": {"Monday": ["1000", "1900"], "Tuesday": ["1000", "1900"], "Wednesday": ["1000", "1900"], "Thursday": ["1000", "1900"], "Friday": ["1000", "2200"], "Saturday": ["1000", "2200"], "Sunday": ["1000", "1900"]}, "location": {"type": "Point", "coordinates": [-117.1535, 32.82125]}, "price": "$$", "categories": "shopping, all"}, {"business_id": "ruyT6dhEq4MKs21QsbyQrg", "name": "UCSD Bookstore", "address": "9500 Gilman Dr ,Ste 0008 ,La Jolla, CA 92093", "city": "La Jolla", "state": "CA", "postal_code": "92093", "latitude": 32.879445286058285, "longitude": -117.23693530233744, "stars": 3.0, "review_count": 51, "is_open": 1, "attributes": null, "tag": ["bookstores", "custommerchandise", "womenscloth"], "hours": {"Monday": ["0800", "1800"], "Tuesday": ["0800", "1800"], "Wednesday": ["0800", "1800"], "Thursday": ["0800", "1800"], "Friday": ["0800", "1800"], "Saturday": ["1100", "1600"]}, "location": {"type": "Point", "coordinates": [-117.23693530233744, 32.879445286058285]}, "price": "$$", "categories": "shopping, all"}, {"business_id": "3UoY0kVfGpOwEWncb8wmig", "name": "Greene Music", "address": "7480 Miramar Rd ,San Diego, CA 92126", "city": "San Diego", "state": "CA", "postal_code": "92126", "latitude": 32.884368, "longitude": -117.154088, "stars": 5.0, "review_count": 483, "is_open": 1, "attributes": null, "tag": ["musicalinstrumentsandteachers", "musicvenues", "pianostores"], "hours": {"Monday": ["1000", "1800"], "Tuesday": ["1000", "1800"], "Wednesday": ["1000", "1800"], "Thursday": ["1000", "1800"], "Friday": ["1000", "1800"], "Saturday": ["1000", "1800"], "Sunday": ["1200", "1700"]}, "location": {"type": "Point", "coordinates": [-117.154088, 32.884368]}, "price": "$$", "categories": "shopping, all"}, {"business_id": "uS7TtcmTsKUT8c1QWo4FUw", "name": "Collins Family Jewelers", "address": "8220 Mira Mesa Blvd ,Ste A ,San Diego, CA 92126", "city": "San Diego", "state": "CA", "postal_code": "92126", "latitude": 32.91349, "longitude": -117.14666, "stars": 5.0, "review_count": 268, "is_open": 1, "attributes": null, "tag": ["jewelry", "jewelryrepair", "watch_repair"], "hours": {"Tuesday": ["1000", "1500"], "Wednesday": ["1000", "1500"], "Thursday": ["1000", "1500"], "Friday": ["1000", "1500"], "Saturday": ["1000", "1500"]}, "location": {"type": "Point", "coordinates": [-117.14666, 32.91349]}, "price": "$$", "categories": "shopping, all"}, {"business_id": "FOSdpIM-nV53OpUPsbrxoA", "name": "Purple Mattress", "address": "4575 La Jolla Village Dr ,Ste 1175 ,San Diego, CA 92122", "city": "San Diego", "state": "CA", "postal_code": "92122", "latitude": 32.87369, "longitude": -117.20859, "stars": 5.0, "review_count": 24, "is_open": 1, "attributes": null, "tag": ["mattresses"], "hours": {"Monday": ["1000", "2000"], "Tuesday": ["1000", "2000"], "Wednesday": ["1000", "2000"], "Thursday": ["1000", "2000"], "Friday": ["1000", "2000"], "Saturday": ["1000", "2000"], "Sunday": ["1100", "1900"]}, "location": {"type": "Point", "coordinates": [-117.20859, 32.87369]}, "price": null, "categories": "shopping, all"}, {"business_id": "n6lQDflVPnwVxzlfcNHw2Q", "name": "Bouluci Boutique", "address": "7863 Girard Ave ,Ste 106 ,La Jolla, CA 92037", "city": "La Jolla", "state": "CA", "postal_code": "92037", "latitude": 32.846428, "longitude": -117.273983, "stars": 4.5, "review_count": 195, "is_open": 1, "attributes": null, "tag": ["womenscloth"], "hours": {"Monday": ["0900", "1700"], "Tuesday": ["0900", "1700"], "Wednesday": ["0900", "1700"], "Thursday": ["0900", "1700"], "Friday": ["0900", "1700"], "Saturday": ["0900", "1700"], "Sunday": ["1000", "1600"]}, "location": {"type": "Point", "coordinates": [-117.273983, 32.846428]}, "price": "$$", "categories": "shopping, all"}, {"business_id": "MPTcb3Tmd2PtCVyvXJRXhg", "name": "Royal Cigar Lounge", "address": "7094 Miramar Rd ,San Diego, CA 92121", "city": "San Diego", "state": "CA", "postal_code": "92121", "latitude": 32.87994, "longitude": -117.16208, "stars": 5.0, "review_count": 123, "is_open": 1, "attributes": null, "tag": ["lounges", "tobaccoshops"], "hours": {"Monday": ["1000", "2100"], "Tuesday": ["1000", "2100"], "Wednesday": ["1000", "2100"], "Thursday": ["1000", "2200"], "Friday": ["1000", "2200"], "Saturday": ["1000", "2100"], "Sunday": ["1100", "2100"]}, "location": {"type": "Point", "coordinates": [-117.16208, 32.87994]}, "price": "$$", "categories": "shopping, all"}, {"business_id": "aPI2uRqt6cCIKiunAJ8ZEA", "name": "Pure Water Health", "address": "8199 Clairemont Mesa Blvd ,Ste K-1 ,San Diego, CA 92111", "city": "San Diego", "state": "CA", "postal_code": "92111", "latitude": 32.832283303493405, "longitude": -117.14727737281576, "stars": 5.0, "review_count": 164, "is_open": 1, "attributes": null, "tag": ["waterstores", "vitaminssupplements"], "hours": {"Monday": ["1000", "1900"], "Tuesday": ["1000", "1900"], "Wednesday": ["1000", "1900"], "Thursday": ["1000", "1900"], "Friday": ["1000", "1900"], "Saturday": ["1000", "1800"], "Sunday": ["1000", "1800"]}, "location": {"type": "Point", "coordinates": [-117.14727737281576, 32.832283303493405]}, "price": "$", "categories": "shopping, all"}, {"business_id": "d3WZxFSK2lkceLG7oYn4RQ", "name": "Surf Lounge", "address": "763 Turquoise St ,San Diego, CA 92101", "city": "San Diego", "state": "CA", "postal_code": "92101", "latitude": 32.8083963, "longitude": -117.259657, "stars": 5.0, "review_count": 105, "is_open": 1, "attributes": null, "tag": ["coffee", "surfshop"], "hours": {"Monday": ["0600", "1430"], "Tuesday": ["0600", "1430"], "Wednesday": ["0600", "1430"], "Thursday": ["0600", "1430"], "Friday": ["0600", "1430"], "Saturday": ["0700", "1600"], "Sunday": ["0700", "1500"]}, "location": {"type": "Point", "coordinates": [-117.259657, 32.8083963]}, "price": "$$", "categories": "shopping, all"}, {"business_id": "u_Fy9miXPTC3tHH-xD8EuA", "name": "La Jolla Florist", "address": "7946 Ivanhoe Ave ,Ste 108 ,La Jolla, CA 92037", "city": "La Jolla", "state": "CA", "postal_code": "92037", "latitude": 32.848107695662996, "longitude": -117.27273085996082, "stars": 5.0, "review_count": 56, "is_open": 1, "attributes": null, "tag": ["florists", "floraldesigners"], "hours": {"Monday": ["0800", "1730"], "Tuesday": ["0800", "1730"], "Wednesday": ["0800", "1730"], "Thursday": ["0800", "1730"], "Friday": ["0800", "1730"], "Saturday": ["0900", "1500"]}, "location": {"type": "Point", "coordinates": [-117.27273085996082, 32.848107695662996]}, "price": null, "categories": "shopping, all"}, {"business_id": "TK8BkAeVrTsIJEgcgV-nKw", "name": "Eatsies", "address": "San Diego, CA 92037", "city": "San Diego", "state": "CA", "postal_code": "92037", "latitude": 32.84480667114258, "longitude": -117.2536849975586, "stars": 5.0, "review_count": 102, "is_open": 1, "attributes": null, "tag": ["cookingschools", "cookingclasses"], "hours": {"Monday": ["0900", "1900"], "Tuesday": ["0900", "1900"], "Wednesday": ["0900", "1900"], "Thursday": ["0900", "1900"], "Friday": ["0900", "1900"], "Saturday": ["0900", "1900"], "Sunday": ["0900", "1900"]}, "location": {"type": "Point", "coordinates": [-117.2536849975586, 32.84480667114258]}, "price": "$", "categories": "shopping, all"}, {"business_id": "VVxFWza479Urh1zUDTk6Fg", "name": "Daiso", "address": "8199 Clairemont Mesa Blvd ,San Diego, CA 92111", "city": "San Diego", "state": "CA", "postal_code": "92111", "latitude": 32.8321903291165, "longitude": -117.146373577416, "stars": 4.5, "review_count": 293, "is_open": 1, "attributes": null, "tag": ["discountstore"], "hours": {"Monday": ["1000", "2100"], "Tuesday": ["1000", "2100"], "Wednesday": ["1000", "2100"], "Thursday": ["1000", "2100"], "Friday": ["1000", "2100"], "Saturday": ["1000", "2100"], "Sunday": ["1000", "2000"]}, "location": {"type": "Point", "coordinates": [-117.146373577416, 32.8321903291165]}, "price": "$", "categories": "shopping, all"}, {"business_id": "yaTTuiEBae1ym8APzVQASw", "name": "La Jolla Outpost", "address": "8008 Girard Ave ,Ste 160 ,San Diego, CA 92037", "city": "San Diego", "state": "CA", "postal_code": "92037", "latitude": 32.84811, "longitude": -117.27449, "stars": 4.5, "review_count": 88, "is_open": 1, "attributes": null, "tag": ["souvenirs"], "hours": {"Monday": ["0900", "2000"], "Tuesday": ["0900", "2000"], "Wednesday": ["0900", "2000"], "Thursday": ["0900", "2000"], "Friday": ["0900", "2000"], "Saturday": ["0900", "2000"], "Sunday": ["0900", "2000"]}, "location": {"type": "Point", "coordinates": [-117.27449, 32.84811]}, "price": "$$", "categories": "shopping, all"}, {"business_id": "a2agkg_P2yL_Qhvt7G74qQ", "name": "Tiffany & Co", "address": "4545 La Jolla Villa Dr ,H4 ,H4 ,San Diego, CA 92122", "city": "San Diego", "state": "CA", "postal_code": "92122", "latitude": 32.8706894, "longitude": -117.2110084, "stars": 4.5, "review_count": 83, "is_open": 1, "attributes": null, "tag": ["accessories", "jewelry", "watches"], "hours": {"Monday": ["1000", "2100"], "Tuesday": ["1000", "2100"], "Wednesday": ["1000", "2100"], "Thursday": ["1000", "2100"], "Friday": ["1000", "2100"], "Saturday": ["1000", "2000"], "Sunday": ["1100", "1900"]}, "location": {"type": "Point", "coordinates": [-117.2110084, 32.8706894]}, "price": "$$$$", "categories": "shopping, all"}, {"business_id": "hw7g0bzNp8gf6pPFTaAWCw", "name": "Ben Bridge Jeweler", "address": "4505 La Jolla Village Dr ,San Diego, CA 92122", "city": "San Diego", "state": "CA", "postal_code": "92122", "latitude": 32.871597, "longitude": -117.210295, "stars": 4.0, "review_count": 188, "is_open": 1, "attributes": null, "tag": ["jewelry", "watches", "watch_repair"], "hours": {"Monday": ["1100", "1900"], "Tuesday": ["1100", "1900"], "Wednesday": ["1100", "1900"], "Thursday": ["1100", "1900"], "Friday": ["1100", "1900"], "Saturday": ["1100", "1900"], "Sunday": ["1100", "1900"]}, "location": {"type": "Point", "coordinates": [-117.210295, 32.871597]}, "price": "$$$", "categories": "shopping, all"}, {"business_id": "wK6D5oAqevXmmKGpC2Hg3Q", "name": "Primo Alterations & Dry Cleaning", "address": "7433 Mission Gorge Rd ,San Diego, CA 92120", "city": "San Diego", "state": "CA", "postal_code": "92120", "latitude": 32.80632184, "longitude": -117.0781898, "stars": 5.0, "review_count": 298, "is_open": 1, "attributes": null, "tag": ["sewingalterations", "dryclean", "bridal"], "hours": {"Tuesday": ["1000", "1700"], "Wednesday": ["1000", "1700"], "Thursday": ["1000", "1700"], "Friday": ["1000", "1700"], "Saturday": ["1000", "1600"]}, "location": {"type": "Point", "coordinates": [-117.0781898, 32.80632184]}, "price": "$$", "categories": "shopping, all"}, {"business_id": "1J-NUJEIg5XJ0sOHdzR4qw", "name": "Bridget's Blooms", "address": "1055 Torrey Pines Rd ,La Jolla, CA 92037", "city": "La Jolla", "state": "CA", "postal_code": "92037", "latitude": 32.84254, "longitude": -117.271946, "stars": 5.0, "review_count": 105, "is_open": 1, "attributes": null, "tag": ["florists"], "hours": {"Monday": ["1000", "1700"], "Tuesday": ["1000", "1700"], "Wednesday": ["1000", "1700"], "Thursday": ["1000", "1700"], "Friday": ["1000", "1700"], "Saturday": ["1000", "1700"]}, "location": {"type": "Point", "coordinates": [-117.271946, 32.84254]}, "price": "$$", "categories": "shopping, all"}, {"business_id": "tnR0WDYYKr9y5W4ZV9Hndg", "name": "Excalibur Cigar & Scotch Lounge", "address": "8199 Clairemont Mesa Blvd ,Ste O ,San Diego, CA 92111", "city": "San Diego", "state": "CA", "postal_code": "92111", "latitude": 32.8322076, "longitude": -117.1473074, "stars": 4.5, "review_count": 186, "is_open": 1, "attributes": null, "tag": ["tobaccoshops", "lounges"], "hours": {"Monday": ["0900", "2300"], "Tuesday": ["0900", "2300"], "Wednesday": ["0900", "2300"], "Thursday": ["0900", "0000"], "Friday": ["0900", "0000"], "Saturday": ["0900", "0000"], "Sunday": ["1000", "2000"]}, "location": {"type": "Point", "coordinates": [-117.1473074, 32.8322076]}, "price": "$$", "categories": "shopping, all"}, {"business_id": "ikV-ehKW1MFz34l8YvfTgQ", "name": "ehime pearl & diamond", "address": "4660 La Jolla Village Dr ,Ste 100 ,San Diego, CA 92122", "city": "San Diego", "state": "CA", "postal_code": "92122", "latitude": 32.8746603545124, "longitude": -117.206924964249, "stars": 5.0, "review_count": 28, "is_open": 1, "attributes": null, "tag": ["jewelry", "appraisalservices", "jewelryrepair"], "hours": {"Monday": ["1030", "1800"], "Tuesday": ["1030", "1800"], "Wednesday": ["1030", "1800"], "Thursday": ["1030", "1800"], "Friday": ["1030", "1800"], "Saturday": ["1030", "1600"]}, "location": {"type": "Point", "coordinates": [-117.206924964249, 32.8746603545124]}, "price": "$$$", "categories": "shopping, all"}, {"business_id": "ZWNA3iitik5eYNv2OlsUHA", "name": "Flour Atelier", "address": "4240 Kearny Mesa Rd ,Ste 116 ,San Diego, CA 92111", "city": "San Diego", "state": "CA", "postal_code": "92111", "latitude": 32.81894370695081, "longitude": -117.1504525, "stars": 4.5, "review_count": 74, "is_open": 1, "attributes": null, "tag": ["bakeries", "florists", "cakeshop"], "hours": {"Tuesday": ["1000", "1500"], "Wednesday": ["1000", "1500"], "Thursday": ["1000", "1500"], "Friday": ["1000", "1600"], "Saturday": ["1000", "1600"], "Sunday": ["1000", "1600"]}, "location": {"type": "Point", "coordinates": [-117.1504525, 32.81894370695081]}, "price": null, "categories": "shopping, all"}, {"business_id": "-czEO6_mGCYkkD3ErFIXhg", "name": "Tropical Star Restaurant & Specialty Market", "address": "6163 Balboa Ave ,San Diego, CA 92111", "city": "San Diego", "state": "CA", "postal_code": "92111", "latitude": 32.81959, "longitude": -117.17469, "stars": 4.0, "review_count": 367, "is_open": 1, "attributes": null, "tag": ["caribbean", "latin", "publicmarkets"], "hours": {"Monday": ["1100", "1900"], "Tuesday": ["1100", "1900"], "Wednesday": ["1100", "1900"], "Thursday": ["1100", "1900"], "Friday": ["1100", "1930"], "Saturday": ["1100", "2000"], "Sunday": ["1100", "1700"]}, "location": {"type": "Point", "coordinates": [-117.17469, 32.81959]}, "price": "$$", "categories": "shopping, all"}, {"business_id": "5AzYMjoNRXdllRpO1tHx6w", "name": "Target", "address": "9500 Gilman Dr ,La Jolla, CA 92093", "city": "La Jolla", "state": "CA", "postal_code": "92093", "latitude": 32.879728, "longitude": -117.236809, "stars": 4.5, "review_count": 15, "is_open": 1, "attributes": null, "tag": ["furniture", "electronics", "deptstores"], "hours": {"Monday": ["0700", "2200"], "Tuesday": ["0700", "2200"], "Wednesday": ["0700", "2200"], "Thursday": ["0700", "2200"], "Friday": ["0700", "2200"], "Saturday": ["0800", "2200"], "Sunday": ["0800", "2200"]}, "location": {"type": "Point", "coordinates": [-117.236809, 32.879728]}, "price": "$$", "categories": "shopping, all"}, {"business_id": "fDzkWOiZpKn1BNXJe63eUA", "name": "Personal Trainer San Diego - Iron Orr Fitness", "address": "8720 Costa Verde Blvd ,San Diego, CA 92122", "city": "San Diego", "state": "CA", "postal_code": "92122", "latitude": 32.8701, "longitude": -117.21731, "stars": 5.0, "review_count": 142, "is_open": 1, "attributes": null, "tag": ["gyms", "healthtrainers"], "hours": {"Monday": ["0500", "2200"], "Tuesday": ["0500", "2200"], "Wednesday": ["0500", "2200"], "Thursday": ["0500", "2200"], "Friday": ["0500", "2200"], "Saturday": ["0900", "1700"], "Sunday": ["0900", "1700"]}, "location": {"type": "Point", "coordinates": [-117.21731, 32.8701]}, "price": null, "categories": "fitness, all"}, {"business_id": "Oi5aB8iJY2vbB5dCVb2egQ", "name": "My Baby Swims", "address": "4126 Executive Dr ,San Diego, CA 92037", "city": "San Diego", "state": "CA", "postal_code": "92037", "latitude": 32.875628, "longitude": -117.21502, "stars": 5.0, "review_count": 95, "is_open": 1, "attributes": null, "tag": ["swimminglessons"], "hours": {"Monday": ["0900", "1700"], "Tuesday": ["0900", "1700"], "Wednesday": ["0900", "1700"], "Thursday": ["0900", "1700"], "Friday": ["0900", "1700"]}, "location": {"type": "Point", "coordinates": [-117.21502, 32.875628]}, "price": null, "categories": "fitness, all"}, {"business_id": "URF43KyiAo5fYC5d9zg5Qg", "name": "San Diego Fitness", "address": "4206 Sorrento Valley Blvd ,Ste E ,San Diego, CA 92121", "city": "San Diego", "state": "CA", "postal_code": "92121", "latitude": 32.905132, "longitude": -117.214495, "stars": 5.0, "review_count": 38, "is_open": 1, "attributes": null, "tag": ["healthtrainers"], "hours": {"Monday": ["0000", "0000"], "Tuesday": ["0000", "0000"], "Wednesday": ["0000", "0000"], "Thursday": ["0000", "0000"], "Friday": ["0000", "0000"], "Saturday": ["0000", "0000"], "Sunday": ["0000", "0000"]}, "location": {"type": "Point", "coordinates": [-117.214495, 32.905132]}, "price": null, "categories": "fitness, all"}, {"business_id": "wlpoKCpOk-KnOZ86MSGITQ", "name": "Krav Maga San Diego, Inc", "address": "4126 Executive Dr ,La Jolla, CA 92037", "city": "La Jolla", "state": "CA", "postal_code": "92037", "latitude": 32.87562471588392, "longitude": -117.21500457423345, "stars": 5.0, "review_count": 30, "is_open": 1, "attributes": null, "tag": ["martialarts", "selfdefenseclasses"], "hours": {"Wednesday": ["1830", "1930"], "Saturday": ["0900", "1000"]}, "location": {"type": "Point", "coordinates": [-117.21500457423345, 32.87562471588392]}, "price": null, "categories": "fitness, all"}, {"business_id": "pV2KFe95ILx4SL6b8D9KAA", "name": "San Diego Sports Medicine Physical Therapy", "address": "10505 Sorrento Valley Rd ,Ste 200 ,San Diego, CA 92121", "city": "San Diego", "state": "CA", "postal_code": "92121", "latitude": 32.895961746019026, "longitude": -117.21719560856836, "stars": 5.0, "review_count": 71, "is_open": 1, "attributes": null, "tag": ["physicaltherapy", "healthtrainers", "pilates"], "hours": {"Monday": ["0700", "1800"], "Tuesday": ["0700", "1800"], "Wednesday": ["0700", "1800"], "Thursday": ["0700", "1800"], "Friday": ["0700", "1800"]}, "location": {"type": "Point", "coordinates": [-117.21719560856836, 32.895961746019026]}, "price": null, "categories": "fitness, all"}, {"business_id": "XdmppjXssJzbkkDCOsVELw", "name": "CrossFit Del Mar", "address": "10447 Roselle St ,Ste 1 ,San Diego, CA 92121", "city": "San Diego", "state": "CA", "postal_code": "92121", "latitude": 32.894532, "longitude": -117.218712, "stars": 4.5, "review_count": 33, "is_open": 1, "attributes": null, "tag": ["intervaltraininggyms"], "hours": {"Monday": ["1630", "1930"], "Tuesday": ["1630", "1930"], "Wednesday": ["1630", "1930"], "Thursday": ["1630", "1930"], "Friday": ["1630", "1830"], "Saturday": ["0800", "1000"]}, "location": {"type": "Point", "coordinates": [-117.218712, 32.894532]}, "price": null, "categories": "fitness, all"}, {"business_id": "8b_vpVx_dUcOwpw7jIAZjw", "name": "Aspire Health & Wellness", "address": "8950 Villa La Jolla Dr ,Ste A107 ,Integrative Health Solutions ,La Jolla, CA 92037", "city": "La Jolla", "state": "CA", "postal_code": "92037", "latitude": 32.870935, "longitude": -117.235142, "stars": 5.0, "review_count": 26, "is_open": 1, "attributes": null, "tag": ["physicaltherapy", "healthtrainers"], "hours": {}, "location": {"type": "Point", "coordinates": [-117.235142, 32.870935]}, "price": null, "categories": "fitness, all"}, {"business_id": "ZBzf-I8eq2fI1XXWSsH3jw", "name": "Orangetheory Fitness San Diego - UTC", "address": "8960 University Center Ln ,San Diego, CA 92122", "city": "San Diego", "state": "CA", "postal_code": "92122", "latitude": 32.870303787281216, "longitude": -117.22471821392688, "stars": 4.5, "review_count": 96, "is_open": 1, "attributes": null, "tag": ["bootcamps", "gyms", "healthtrainers"], "hours": {"Monday": ["0500", "1930"], "Tuesday": ["0500", "1930"], "Wednesday": ["0500", "1930"], "Thursday": ["0500", "1930"], "Friday": ["0500", "1830"], "Saturday": ["0700", "1200"], "Sunday": ["0700", "1200"]}, "location": {"type": "Point", "coordinates": [-117.22471821392688, 32.870303787281216]}, "price": null, "categories": "fitness, all"}, {"business_id": "UD7Ss1S4Aey3h7FQa4mMag", "name": "Individualized Fitness", "address": "7435 Charmant Dr ,San Diego, CA 92122", "city": "San Diego", "state": "CA", "postal_code": "92122", "latitude": 32.8649709225773, "longitude": -117.227420193356, "stars": 5.0, "review_count": 23, "is_open": 1, "attributes": null, "tag": ["healthtrainers", "kickboxing", "yoga"], "hours": {"Monday": ["0645", "2030"], "Tuesday": ["0645", "2030"], "Wednesday": ["0645", "2030"], "Thursday": ["0645", "2030"], "Friday": ["0645", "1830"], "Saturday": ["0645", "1400"]}, "location": {"type": "Point", "coordinates": [-117.227420193356, 32.8649709225773]}, "price": null, "categories": "fitness, all"}, {"business_id": "-EuRoWZLBJbc5LsqsKk9hg", "name": "UPRISE Fitness", "address": "11588 Sorrento Valley Rd ,Unit 22 ,San Diego, CA 92121", "city": "San Diego", "state": "CA", "postal_code": "92121", "latitude": 32.91182, "longitude": -117.23299, "stars": 5.0, "review_count": 39, "is_open": 1, "attributes": null, "tag": ["healthtrainers", "gyms"], "hours": {"Monday": ["0000", "0000"], "Tuesday": ["0000", "0000"], "Wednesday": ["0000", "0000"], "Thursday": ["0000", "0000"], "Friday": ["0000", "0000"], "Saturday": ["0000", "0000"]}, "location": {"type": "Point", "coordinates": [-117.23299, 32.91182]}, "price": null, "categories": "fitness, all"}, {"business_id": "DuT7Q9-w7FanMr9sPhd7rQ", "name": "CKO Kickboxing", "address": "7094 Miramar Rd ,San Diego, CA 92121", "city": "San Diego", "state": "CA", "postal_code": "92121", "latitude": 32.87994, "longitude": -117.16208, "stars": 5.0, "review_count": 102, "is_open": 1, "attributes": null, "tag": ["healthtrainers", "kickboxing"], "hours": {"Monday": ["0600", "2000"], "Tuesday": ["0530", "2000"], "Wednesday": ["0600", "2000"], "Thursday": ["0530", "2000"], "Friday": ["0600", "1900"], "Saturday": ["0800", "1100"], "Sunday": ["0800", "1100"]}, "location": {"type": "Point", "coordinates": [-117.16208, 32.87994]}, "price": null, "categories": "fitness, all"}, {"business_id": "okPKCrjIri_x_ZiMJAqv-A", "name": "Golf Upgrades - Jacob Williams PGA Associate ", "address": "5605 Carroll Canyon Rd ,San Diego, CA 92121", "city": "San Diego", "state": "CA", "postal_code": "92121", "latitude": 32.8923997263815, "longitude": -117.186559193586, "stars": 5.0, "review_count": 41, "is_open": 1, "attributes": null, "tag": ["golf", "golflessons"], "hours": {"Monday": ["0800", "2000"], "Tuesday": ["0800", "2000"], "Wednesday": ["0800", "2000"], "Thursday": ["0800", "2000"], "Friday": ["0800", "2000"], "Saturday": ["0800", "2000"], "Sunday": ["0800", "2000"]}, "location": {"type": "Point", "coordinates": [-117.186559193586, 32.8923997263815]}, "price": null, "categories": "fitness, all"}, {"business_id": "UKN7RF-O5Cd9x3iPK5dnpA", "name": "The Camp Transformation Center", "address": "6904 Miramar Rd ,Ste 103 ,San Diego, CA 92121", "city": "San Diego", "state": "CA", "postal_code": "92121", "latitude": 32.8792, "longitude": -117.16743, "stars": 5.0, "review_count": 55, "is_open": 1, "attributes": null, "tag": ["bootcamps", "weightlosscenters", "intervaltraininggyms"], "hours": {"Monday": ["1700", "2000"], "Tuesday": ["1700", "2000"], "Wednesday": ["1700", "2000"], "Thursday": ["1700", "2000"], "Friday": ["1700", "1900"], "Saturday": ["0700", "1000"]}, "location": {"type": "Point", "coordinates": [-117.16743, 32.8792]}, "price": null, "categories": "fitness, all"}, {"business_id": "vS-AXMPOD3_Cu7EzL6stQA", "name": "Jo Stretch", "address": "7746 Girard Ave ,La Jolla, CA 92037", "city": "La Jolla", "state": "CA", "postal_code": "92037", "latitude": 32.8444, "longitude": -117.27416, "stars": 5.0, "review_count": 34, "is_open": 1, "attributes": null, "tag": ["fitness"], "hours": {"Monday": ["1600", "1900"], "Tuesday": ["1600", "1900"], "Wednesday": ["1500", "1900"], "Thursday": ["1600", "1900"], "Friday": ["0800", "1300"], "Saturday": ["0800", "1400"], "Sunday": ["0800", "1300"]}, "location": {"type": "Point", "coordinates": [-117.27416, 32.8444]}, "price": null, "categories": "fitness, all"}, {"business_id": "auypAgLVIWQonxB4nc119w", "name": "Buddhi Yoga", "address": "7843 Girard Ave ,Ste F - Fl 2 ,La Jolla, CA 92037", "city": "La Jolla", "state": "CA", "postal_code": "92037", "latitude": 32.8457280993462, "longitude": -117.274114787579, "stars": 5.0, "review_count": 63, "is_open": 1, "attributes": null, "tag": ["yoga"], "hours": {"Monday": ["0815", "2000"], "Tuesday": ["0615", "1845"], "Wednesday": ["0600", "2000"], "Thursday": ["0615", "1845"], "Friday": ["0815", "1800"], "Saturday": ["0715", "1730"], "Sunday": ["0815", "1845"]}, "location": {"type": "Point", "coordinates": [-117.274114787579, 32.8457280993462]}, "price": null, "categories": "fitness, all"}, {"business_id": "FkhnFYWgSMKrQ56gV9yrmg", "name": "BE Fit Modern Pilates", "address": "8915 Towne Centre Dr ,Ste 107 ,San Diego, CA 92122", "city": "San Diego", "state": "CA", "postal_code": "92122", "latitude": 32.86745383490873, "longitude": -117.20582089626797, "stars": 5.0, "review_count": 22, "is_open": 1, "attributes": null, "tag": ["gyms", "pilates"], "hours": {"Monday": ["0600", "2000"], "Tuesday": ["0600", "2000"], "Wednesday": ["0600", "2000"], "Thursday": ["0600", "2000"], "Friday": ["0600", "1700"], "Saturday": ["0800", "1300"], "Sunday": ["0800", "1300"]}, "location": {"type": "Point", "coordinates": [-117.20582089626797, 32.86745383490873]}, "price": null, "categories": "fitness, all"}, {"business_id": "eX_mWk3kJmWtUKlN-3ZLSQ", "name": "Pro+Kinetix Physical Therapy & Performance - San Diego", "address": "4206 Sorrento Valley Blvd ,Ste E ,San Diego, CA 92121", "city": "San Diego", "state": "CA", "postal_code": "92121", "latitude": 32.905262423143725, "longitude": -117.2145716406378, "stars": 5.0, "review_count": 41, "is_open": 1, "attributes": null, "tag": ["physicaltherapy", "sportsmed", "fitness"], "hours": {"Monday": ["0600", "2000"], "Tuesday": ["0600", "2000"], "Wednesday": ["0600", "2000"], "Thursday": ["0600", "2000"], "Friday": ["0600", "2000"], "Saturday": ["0600", "2000"], "Sunday": ["0600", "2000"]}, "location": {"type": "Point", "coordinates": [-117.2145716406378, 32.905262423143725]}, "price": null, "categories": "fitness, all"}, {"business_id": "OKTs8CB5PTElwKIRdJogJg", "name": "Transform Training", "address": "8720 Costa Verde Blvd ,San Diego, CA 92122", "city": "San Diego", "state": "CA", "postal_code": "92122", "latitude": 32.8706970214844, "longitude": -117.217178344727, "stars": 5.0, "review_count": 12, "is_open": 1, "attributes": null, "tag": ["healthtrainers"], "hours": {"Monday": ["0500", "2200"], "Tuesday": ["0500", "2200"], "Wednesday": ["0500", "2200"], "Thursday": ["0500", "2200"], "Friday": ["0500", "2200"], "Saturday": ["0500", "2200"], "Sunday": ["0500", "2200"]}, "location": {"type": "Point", "coordinates": [-117.217178344727, 32.8706970214844]}, "price": null, "categories": "fitness, all"}, {"business_id": "SBDF8oTvqElY4ruFCzAKhQ", "name": "Fitness4ward", "address": "9292 Miramar Rd ,San Diego, CA 92126", "city": "San Diego", "state": "CA", "postal_code": "92126", "latitude": 32.8950814, "longitude": -117.1272566, "stars": 5.0, "review_count": 78, "is_open": 1, "attributes": null, "tag": ["intervaltraininggyms", "weightlosscenters", "circuittraininggyms"], "hours": {"Monday": ["0500", "2000"], "Tuesday": ["0500", "2000"], "Wednesday": ["0500", "2000"], "Thursday": ["0500", "2000"], "Friday": ["0500", "1000"], "Saturday": ["0800", "0945"]}, "location": {"type": "Point", "coordinates": [-117.1272566, 32.8950814]}, "price": null, "categories": "fitness, all"}, {"business_id": "0hvNAKk4o0Fu7gMzmEZZ9Q", "name": "The Active Executive", "address": "10803 Vista Sorrento Pkwy ,Ste 100 ,San Diego, CA 92121", "city": "San Diego", "state": "CA", "postal_code": "92121", "latitude": 32.907162879223, "longitude": -117.224064311643, "stars": 5.0, "review_count": 10, "is_open": 1, "attributes": null, "tag": ["nutritionists", "healthtrainers", "massage_therapy"], "hours": {"Monday": ["0600", "2000"], "Tuesday": ["0600", "2000"], "Wednesday": ["0600", "2000"], "Thursday": ["0600", "2000"], "Friday": ["0600", "1800"], "Saturday": ["0700", "1400"]}, "location": {"type": "Point", "coordinates": [-117.224064311643, 32.907162879223]}, "price": null, "categories": "fitness, all"}, {"business_id": "8IIemx2HGdWmkzza8G7TJA", "name": "VERVE Studios", "address": "2630 Del Mar Heights Rd ,Del Mar, CA 92014", "city": "Del Mar", "state": "CA", "postal_code": "92014", "latitude": 32.9490543, "longitude": -117.2466609, "stars": 5.0, "review_count": 47, "is_open": 1, "attributes": null, "tag": ["cyclingclasses", "healthtrainers"], "hours": {"Monday": ["0600", "2000"], "Tuesday": ["0600", "2000"], "Wednesday": ["0600", "2000"], "Thursday": ["0600", "2000"], "Friday": ["0600", "1900"], "Saturday": ["0800", "1200"], "Sunday": ["0800", "1200"]}, "location": {"type": "Point", "coordinates": [-117.2466609, 32.9490543]}, "price": null, "categories": "fitness, all"}, {"business_id": "xh1RRl9y87XWUnjbbh6YXQ", "name": "KickForce Martial Arts", "address": "9272 Miramar Rd ,Ste 22 ,San Diego, CA 92126", "city": "San Diego", "state": "CA", "postal_code": "92126", "latitude": 32.89493702284877, "longitude": -117.12777679070838, "stars": 5.0, "review_count": 72, "is_open": 1, "attributes": null, "tag": ["martialarts"], "hours": {"Monday": ["1430", "2030"], "Tuesday": ["1500", "2030"], "Wednesday": ["1430", "2030"], "Thursday": ["1500", "2030"], "Friday": ["1500", "2030"], "Saturday": ["0930", "1400"], "Sunday": ["0900", "1215"]}, "location": {"type": "Point", "coordinates": [-117.12777679070838, 32.89493702284877]}, "price": null, "categories": "fitness, all"}, {"business_id": "Sh5ZlVkvzr8FClHQlc9g1w", "name": "NXPT - San Diego", "address": "5150 Murphy Canyon Rd ,Ste 101 ,San Diego, CA 92123", "city": "San Diego", "state": "CA", "postal_code": "92123", "latitude": 32.8314446, "longitude": -117.1209243, "stars": 5.0, "review_count": 366, "is_open": 1, "attributes": null, "tag": ["healthtrainers", "yoga", "bootcamps"], "hours": {"Monday": ["0500", "2100"], "Tuesday": ["0500", "2100"], "Wednesday": ["0500", "2100"], "Thursday": ["0500", "2100"], "Friday": ["0500", "2100"], "Saturday": ["0500", "2100"]}, "location": {"type": "Point", "coordinates": [-117.1209243, 32.8314446]}, "price": null, "categories": "fitness, all"}, {"business_id": "ZS0aYmyr2AbsYj7nGUPl_g", "name": "Party Fitness Social Club ", "address": "San Diego, CA 92130", "city": "San Diego", "state": "CA", "postal_code": "92130", "latitude": 32.94758889791118, "longitude": -117.20741247300244, "stars": 5.0, "review_count": 108, "is_open": 1, "attributes": null, "tag": ["dancestudio", "social_clubs"], "hours": {"Wednesday": ["1800", "1900"], "Saturday": ["1000", "1100"]}, "location": {"type": "Point", "coordinates": [-117.20741247300244, 32.94758889791118]}, "price": null, "categories": "fitness, all"}, {"business_id": "YFI7oqlIze36ZnqfQOWdMQ", "name": "Vida Pilates UC", "address": "3202 Governor Dr ,Ste 210 ,San Diego, CA 92122", "city": "San Diego", "state": "CA", "postal_code": "92122", "latitude": 32.8516463039271, "longitude": -117.215851172805, "stars": 5.0, "review_count": 69, "is_open": 1, "attributes": null, "tag": ["pilates"], "hours": {}, "location": {"type": "Point", "coordinates": [-117.215851172805, 32.8516463039271]}, "price": null, "categories": "fitness, all"}, {"business_id": "mmoy-s1s3LEmgQOFJ4yc5A", "name": "Mesa Rim Climbing Center - Mira Mesa", "address": "10110 Mesa Rim Rd ,Mesa Rim Climbing Center ,San Diego, CA 92121", "city": "San Diego", "state": "CA", "postal_code": "92121", "latitude": 32.90233, "longitude": -117.17784, "stars": 4.5, "review_count": 293, "is_open": 1, "attributes": null, "tag": ["yoga", "rock_climbing", "daycamps"], "hours": {"Monday": ["0600", "2200"], "Tuesday": ["0600", "2200"], "Wednesday": ["0600", "2200"], "Thursday": ["0600", "2200"], "Friday": ["0600", "2200"], "Saturday": ["0800", "2100"], "Sunday": ["0800", "2100"]}, "location": {"type": "Point", "coordinates": [-117.17784, 32.90233]}, "price": null, "categories": "fitness, all"}, {"business_id": "Twxw7CweU6e45T0uOy0ATA", "name": "Ooh La La Dance Academy", "address": "7467 Cuvier St ,San Diego, CA 92037", "city": "San Diego", "state": "CA", "postal_code": "92037", "latitude": 32.8393075, "longitude": -117.2769457, "stars": 5.0, "review_count": 55, "is_open": 1, "attributes": null, "tag": ["theater", "dancestudio", "summer_camps"], "hours": {"Monday": ["1500", "2230"], "Tuesday": ["1500", "2230"], "Wednesday": ["1500", "2230"], "Thursday": ["1500", "2230"], "Friday": ["1500", "1930"], "Saturday": ["1000", "1530"]}, "location": {"type": "Point", "coordinates": [-117.2769457, 32.8393075]}, "price": null, "categories": "fitness, all"}, {"business_id": "U7E0jG0ejMclJegA6sUttw", "name": "Dance With Liza", "address": "3927 Utah St ,San Diego, CA 92104", "city": "San Diego", "state": "CA", "postal_code": "92104", "latitude": 32.749037, "longitude": -117.132287, "stars": 5.0, "review_count": 80, "is_open": 1, "attributes": null, "tag": ["dancestudio", "countrydancehalls", "djs"], "hours": {"Monday": ["0900", "2200"], "Tuesday": ["0900", "2200"], "Wednesday": ["0900", "2200"], "Thursday": ["0900", "1400"], "Friday": ["0900", "2000"], "Sunday": ["0930", "1800"]}, "location": {"type": "Point", "coordinates": [-117.132287, 32.749037]}, "price": null, "categories": "fitness, all"}, {"business_id": "GNdaQPaEDpdCfOwwmbQAoA", "name": "White Dragon Martial Arts - Clairemont", "address": "5953 Balboa Ave ,San Diego, CA 92111", "city": "San Diego", "state": "CA", "postal_code": "92111", "latitude": 32.81969, "longitude": -117.17738, "stars": 5.0, "review_count": 77, "is_open": 1, "attributes": null, "tag": ["martialarts", "taichi", "selfdefenseclasses"], "hours": {"Monday": ["1100", "2100"], "Tuesday": ["1100", "2100"], "Wednesday": ["1100", "2100"], "Thursday": ["1100", "2100"], "Friday": ["1100", "2100"], "Saturday": ["0900", "1600"]}, "location": {"type": "Point", "coordinates": [-117.17738, 32.81969]}, "price": null, "categories": "fitness, all"}, {"business_id": "4qnp8hcaleoxhMS2AMhY7A", "name": "Gracie Jiu-Jitsu La Jolla", "address": "7598 Eads Ave ,La Jolla, CA 92037", "city": "La Jolla", "state": "CA", "postal_code": "92037", "latitude": 32.8418617248535, "longitude": -117.275825500488, "stars": 4.5, "review_count": 43, "is_open": 1, "attributes": null, "tag": ["brazilianjiujitsu"], "hours": {"Monday": ["1545", "2115"], "Tuesday": ["1600", "2100"], "Wednesday": ["1630", "2115"], "Thursday": ["1600", "2115"], "Saturday": ["1030", "1300"]}, "location": {"type": "Point", "coordinates": [-117.275825500488, 32.8418617248535]}, "price": null, "categories": "fitness, all"}, {"business_id": "pSNEDaUGljLSHBZz5JNpuA", "name": "GOLFTEC Sorrento Valley", "address": "9450 Scranton Rd ,Ste 109 ,San Diego, CA 92121", "city": "San Diego", "state": "CA", "postal_code": "92121", "latitude": 32.893288252813754, "longitude": -117.20399914344046, "stars": 4.5, "review_count": 40, "is_open": 1, "attributes": null, "tag": ["golf", "golfequipment", "golflessons"], "hours": {"Monday": ["0700", "2000"], "Tuesday": ["0700", "2000"], "Wednesday": ["0700", "2000"], "Thursday": ["0700", "2000"], "Friday": ["0700", "1800"], "Saturday": ["0800", "1700"], "Sunday": ["0800", "1700"]}, "location": {"type": "Point", "coordinates": [-117.20399914344046, 32.893288252813754]}, "price": "$$$", "categories": "fitness, all"}, {"business_id": "JIOac8rbFB50QoKs1gbW1A", "name": "Club Pilates", "address": "8657 Villa La Jolla Dr ,Ste 125 ,La Jolla, CA 92037", "city": "La Jolla", "state": "CA", "postal_code": "92037", "latitude": 32.86523679416113, "longitude": -117.2323113785736, "stars": 4.5, "review_count": 42, "is_open": 1, "attributes": null, "tag": ["pilates", "yoga"], "hours": {"Monday": ["0800", "1830"], "Tuesday": ["0800", "1830"], "Wednesday": ["0800", "1830"], "Thursday": ["0800", "1830"], "Friday": ["0800", "1800"], "Saturday": ["0800", "1200"], "Sunday": ["0800", "1200"]}, "location": {"type": "Point", "coordinates": [-117.2323113785736, 32.86523679416113]}, "price": null, "categories": "fitness, all"}, {"business_id": "GUwZejYZcgaIsVmqDvLkTg", "name": "F45 Training Rancho Penasquitos", "address": "13289-7 Black Mountain Rd ,Ste 7 ,San Diego, CA 92129", "city": "San Diego", "state": "CA", "postal_code": "92129", "latitude": 32.95843, "longitude": -117.12495, "stars": 5.0, "review_count": 31, "is_open": 1, "attributes": null, "tag": ["healthtrainers", "circuittraininggyms", "intervaltraininggyms"], "hours": {"Monday": ["0445", "1800"], "Tuesday": ["0445", "1800"], "Wednesday": ["0445", "1800"], "Thursday": ["0445", "1800"], "Friday": ["0445", "1800"], "Saturday": ["0645", "0930"], "Sunday": ["0815", "0930"]}, "location": {"type": "Point", "coordinates": [-117.12495, 32.95843]}, "price": null, "categories": "fitness, all"}, {"business_id": "xbXPYi0lO7RTi_CnFamsQQ", "name": "Studio Barre - Carmel Valley", "address": "7845 Highland Village Pl ,Ste C103 ,San Diego, CA 92129", "city": "San Diego", "state": "CA", "postal_code": "92129", "latitude": 32.9620651, "longitude": -117.1542031, "stars": 5.0, "review_count": 149, "is_open": 1, "attributes": null, "tag": ["barreclasses", "pilates", "yoga"], "hours": {"Monday": ["1600", "1930"], "Tuesday": ["1600", "1930"], "Wednesday": ["1600", "1930"], "Thursday": ["1600", "1930"], "Friday": ["1600", "1830"], "Saturday": ["0700", "1200"], "Sunday": ["1600", "1730"]}, "location": {"type": "Point", "coordinates": [-117.1542031, 32.9620651]}, "price": null, "categories": "fitness, all"}, {"business_id": "0ZAljtMZAsnXuAswNlVztA", "name": "Iyengar Yoga Source", "address": "11526 Sorrento Valley Rd ,Ste E ,San Diego, CA 92121", "city": "San Diego", "state": "CA", "postal_code": "92121", "latitude": 32.911054, "longitude": -117.23152, "stars": 4.5, "review_count": 32, "is_open": 1, "attributes": null, "tag": ["yoga"], "hours": {"Monday": ["1000", "1900"], "Tuesday": ["0730", "1945"], "Wednesday": ["0845", "1930"], "Thursday": ["0730", "1915"], "Friday": ["0900", "1930"], "Saturday": ["0900", "1400"], "Sunday": ["0900", "1215"]}, "location": {"type": "Point", "coordinates": [-117.23152, 32.911054]}, "price": null, "categories": "fitness, all"}, {"business_id": "d8s_4iDOLn7ce1vvBByoLw", "name": "Melita Fitness & Rehab", "address": "11689 Sorrento Valley Rd ,Ste Q ,San Diego, CA 92121", "city": "San Diego", "state": "CA", "postal_code": "92121", "latitude": 32.91458454871565, "longitude": -117.2328953110255, "stars": 4.5, "review_count": 39, "is_open": 1, "attributes": null, "tag": ["healthtrainers", "cryotherapy", "rehabilitation_center"], "hours": {"Monday": ["0600", "1800"], "Tuesday": ["0600", "1800"], "Wednesday": ["0600", "1800"], "Thursday": ["0600", "1800"], "Friday": ["0600", "1700"]}, "location": {"type": "Point", "coordinates": [-117.2328953110255, 32.91458454871565]}, "price": null, "categories": "fitness, all"}, {"business_id": "qBDiUp-pq5tdq4kqLhkEiA", "name": "Maxwell's Boxing", "address": "7090 Miramar Rd ,Ste 103 ,San Diego, CA 92121", "city": "San Diego", "state": "CA", "postal_code": "92121", "latitude": 32.8798533562525, "longitude": -117.163035325196, "stars": 5.0, "review_count": 35, "is_open": 1, "attributes": null, "tag": ["boxing", "gyms"], "hours": {"Monday": ["1630", "2030"], "Tuesday": ["1630", "2030"], "Wednesday": ["1630", "2030"], "Thursday": ["1630", "2030"], "Friday": ["1630", "2030"], "Saturday": ["0900", "1130"]}, "location": {"type": "Point", "coordinates": [-117.163035325196, 32.8798533562525]}, "price": null, "categories": "fitness, all"}, {"business_id": "wxp16_D1PJ35tGR71f2V3g", "name": "Swim2John", "address": "San Diego, CA 92037", "city": "San Diego", "state": "CA", "postal_code": "92037", "latitude": 32.84236, "longitude": -117.27438, "stars": 5.0, "review_count": 123, "is_open": 1, "attributes": null, "tag": ["swimminglessons"], "hours": {"Monday": ["0630", "1830"], "Tuesday": ["0630", "1830"], "Wednesday": ["0630", "1830"], "Thursday": ["0630", "1830"], "Friday": ["0630", "1830"]}, "location": {"type": "Point", "coordinates": [-117.27438, 32.84236]}, "price": null, "categories": "fitness, all"}, {"business_id": "tP2VZCG5BezwKMhn68rkFw", "name": "Studio Barre - Bird Rock", "address": "5705 La Jolla Blvd ,La Jolla, CA 92037", "city": "La Jolla", "state": "CA", "postal_code": "92037", "latitude": 32.8159222, "longitude": -117.2705394, "stars": 5.0, "review_count": 80, "is_open": 1, "attributes": null, "tag": ["barreclasses", "pilates", "yoga"], "hours": {"Monday": ["0600", "1830"], "Tuesday": ["0800", "1830"], "Wednesday": ["0600", "1830"], "Thursday": ["0800", "1830"], "Friday": ["0600", "1300"], "Saturday": ["0730", "1130"], "Sunday": ["0730", "1130"]}, "location": {"type": "Point", "coordinates": [-117.2705394, 32.8159222]}, "price": null, "categories": "fitness, all"}, {"business_id": "WmsVbsE3Q4DqWcRErx_FbQ", "name": "CYCLEBAR", "address": "12720 Carmel Country Rd ,Ste 110 ,San Diego, CA 92130", "city": "San Diego", "state": "CA", "postal_code": "92130", "latitude": 32.9530359, "longitude": -117.2299404, "stars": 5.0, "review_count": 139, "is_open": 1, "attributes": null, "tag": ["cyclingclasses", "cardioclasses"], "hours": {"Monday": ["1600", "1900"], "Tuesday": ["1600", "1915"], "Wednesday": ["1600", "1900"], "Thursday": ["1600", "1900"], "Friday": ["0645", "1030"], "Saturday": ["0745", "1200"], "Sunday": ["0745", "1100"]}, "location": {"type": "Point", "coordinates": [-117.2299404, 32.9530359]}, "price": null, "categories": "fitness, all"}, {"business_id": "-WpsvaLCU75gjJeE_8HFRQ", "name": "CorePower Yoga", "address": "7728 Regents Rd ,San Diego, CA 92122", "city": "San Diego", "state": "CA", "postal_code": "92122", "latitude": 32.8619299, "longitude": -117.2245388, "stars": 4.0, "review_count": 138, "is_open": 1, "attributes": null, "tag": ["yoga"], "hours": {"Monday": ["0600", "2200"], "Tuesday": ["0600", "2200"], "Wednesday": ["0600", "2200"], "Thursday": ["0600", "2200"], "Friday": ["0600", "2200"], "Saturday": ["0600", "2200"], "Sunday": ["0600", "2200"]}, "location": {"type": "Point", "coordinates": [-117.2245388, 32.8619299]}, "price": null, "categories": "fitness, all"}, {"business_id": "bMQpG3KA6GYn3dwLkxCRDw", "name": "Brian Bobbitt Golf Lessons", "address": "5605 Carroll Canyon Rd ,San Diego, CA 92121", "city": "San Diego", "state": "CA", "postal_code": "92121", "latitude": 32.8922617, "longitude": -117.1892223, "stars": 5.0, "review_count": 39, "is_open": 1, "attributes": null, "tag": ["golflessons"], "hours": {"Monday": ["0800", "1900"], "Tuesday": ["0800", "1900"], "Wednesday": ["0800", "1900"], "Thursday": ["0800", "1900"], "Saturday": ["0800", "1700"]}, "location": {"type": "Point", "coordinates": [-117.1892223, 32.8922617]}, "price": null, "categories": "fitness, all"}, {"business_id": "zIfmXbxyl-8NUTsesR9UFw", "name": "Vinya Vino + Vinyasa", "address": "6185 Balboa Ave ,San Diego, CA 92111", "city": "San Diego", "state": "CA", "postal_code": "92111", "latitude": 32.81958843648036, "longitude": -117.17412068220906, "stars": 5.0, "review_count": 39, "is_open": 1, "attributes": null, "tag": ["wine_bars", "yoga"], "hours": {"Monday": ["1100", "2100"], "Tuesday": ["1100", "2100"], "Wednesday": ["1100", "2100"], "Thursday": ["1100", "2100"], "Friday": ["1100", "2100"], "Saturday": ["0930", "1400"], "Sunday": ["0930", "2100"]}, "location": {"type": "Point", "coordinates": [-117.17412068220906, 32.81958843648036]}, "price": "$$", "categories": "fitness, all"}, {"business_id": "_NlazOrLQw-TzdW2P661IA", "name": "RADA Jiu Jitsu Academy", "address": "7521 Fay Ave ,San Diego, CA 92037", "city": "San Diego", "state": "CA", "postal_code": "92037", "latitude": 32.840873104496346, "longitude": -117.273557557672, "stars": 5.0, "review_count": 38, "is_open": 1, "attributes": null, "tag": ["brazilianjiujitsu", "yoga", "selfdefenseclasses"], "hours": {"Monday": ["1200", "1900"], "Tuesday": ["0900", "1900"], "Wednesday": ["1200", "1900"], "Thursday": ["0900", "1900"], "Friday": ["1200", "2000"], "Saturday": ["0900", "1730"], "Sunday": ["1000", "1200"]}, "location": {"type": "Point", "coordinates": [-117.273557557672, 32.840873104496346]}, "price": null, "categories": "fitness, all"}, {"business_id": "AtXL7FpHSDubGNoGN2fP-g", "name": "Dance To Evolve", "address": "8767 Gilman Dr ,San Diego, CA 92037", "city": "San Diego", "state": "CA", "postal_code": "92037", "latitude": 32.867326, "longitude": -117.236298, "stars": 4.0, "review_count": 21, "is_open": 1, "attributes": null, "tag": ["dancestudio", "dance_schools"], "hours": {"Monday": ["0900", "1700"], "Tuesday": ["0900", "1700"], "Wednesday": ["0900", "1700"], "Thursday": ["0900", "1700"], "Friday": ["0900", "1700"], "Saturday": ["0900", "1200"]}, "location": {"type": "Point", "coordinates": [-117.236298, 32.867326]}, "price": null, "categories": "fitness, all"}, {"business_id": "gBVcxmC59bghA7flj7NZAw", "name": "Torrey Pines Martial Arts", "address": "4204 Sorrento Valley Blvd ,Ste K ,San Diego, CA 92121", "city": "San Diego", "state": "CA", "postal_code": "92121", "latitude": 32.905433, "longitude": -117.215065, "stars": 5.0, "review_count": 18, "is_open": 1, "attributes": null, "tag": ["selfdefenseclasses", "karate", "brazilianjiujitsu"], "hours": {"Monday": ["1400", "2100"], "Tuesday": ["1400", "1900"], "Wednesday": ["1400", "1900"], "Thursday": ["1400", "2100"], "Saturday": ["0800", "1400"]}, "location": {"type": "Point", "coordinates": [-117.215065, 32.905433]}, "price": null, "categories": "fitness, all"}, {"business_id": "IpqeyT7kcTqaH-PHO7Fzww", "name": "Renegade", "address": "3316 Governor Dr ,San Diego, CA 92122", "city": "San Diego", "state": "CA", "postal_code": "92122", "latitude": 32.852213, "longitude": -117.214631, "stars": 5.0, "review_count": 19, "is_open": 1, "attributes": null, "tag": ["circuittraininggyms", "intervaltraininggyms"], "hours": {"Monday": ["0500", "2000"], "Tuesday": ["0500", "2000"], "Wednesday": ["0500", "2000"], "Thursday": ["0500", "2000"], "Friday": ["0500", "2000"], "Saturday": ["0700", "2000"]}, "location": {"type": "Point", "coordinates": [-117.214631, 32.852213]}, "price": null, "categories": "fitness, all"}, {"business_id": "d0l92aeKoddQNgaBJKUMfg", "name": "Dancing Together", "address": "2180 Garnet Ave ,Ste 1A ,San Diego, CA 92109", "city": "San Diego", "state": "CA", "postal_code": "92109", "latitude": 32.8022801, "longitude": -117.2303728, "stars": 5.0, "review_count": 49, "is_open": 1, "attributes": null, "tag": ["dance_schools", "dancestudio", "wedding_planning"], "hours": {"Monday": ["1000", "2200"], "Tuesday": ["1000", "2200"], "Wednesday": ["1000", "2200"], "Thursday": ["1000", "2200"], "Friday": ["1000", "2200"], "Saturday": ["1000", "2200"], "Sunday": ["1000", "2200"]}, "location": {"type": "Point", "coordinates": [-117.2303728, 32.8022801]}, "price": null, "categories": "fitness, all"}, {"business_id": "sj7pkd76Gz8PuJuvyNwtQA", "name": "Hardcore Fitness Convoy", "address": "4164 Convoy St ,San Diego, CA 92111", "city": "San Diego", "state": "CA", "postal_code": "92111", "latitude": 32.817870256678695, "longitude": -117.15558681565008, "stars": 5.0, "review_count": 106, "is_open": 1, "attributes": null, "tag": ["bootcamps", "healthtrainers", "intervaltraininggyms"], "hours": {"Monday": ["0415", "2000"], "Tuesday": ["0415", "2000"], "Wednesday": ["0415", "2000"], "Thursday": ["0415", "2000"], "Friday": ["0415", "2000"], "Saturday": ["0545", "1100"], "Sunday": ["0615", "1000"]}, "location": {"type": "Point", "coordinates": [-117.15558681565008, 32.817870256678695]}, "price": null, "categories": "fitness, all"}, {"business_id": "WSntZlUXf0zuq0k96UoJ2A", "name": "Torrey Pines State Reserve", "address": "12600 N Torrey Pines Rd ,La Jolla, CA 92037", "city": "La Jolla", "state": "CA", "postal_code": "92037", "latitude": 32.92695, "longitude": -117.259315, "stars": 4.5, "review_count": 1529, "is_open": 1, "attributes": null, "tag": ["parks", "hiking", "beaches"], "hours": {"Monday": ["0700", "2000"], "Tuesday": ["0700", "2000"], "Wednesday": ["0700", "2000"], "Thursday": ["0700", "2000"], "Friday": ["0700", "2000"], "Saturday": ["0700", "2000"], "Sunday": ["0700", "2000"]}, "location": {"type": "Point", "coordinates": [-117.259315, 32.92695]}, "price": null, "categories": "hiking, all"}, {"business_id": "2-Pt-11vdOAdfnKtvrTGxA", "name": "La Jolla Trail", "address": "9883 La Jolla Farms Rd ,San Diego, CA 92037", "city": "San Diego", "state": "CA", "postal_code": "92037", "latitude": 32.88497, "longitude": -117.24885, "stars": 4.0, "review_count": 207, "is_open": 1, "attributes": null, "tag": ["hiking"], "hours": {}, "location": {"type": "Point", "coordinates": [-117.24885, 32.88497]}, "price": null, "categories": "hiking, all"}, {"business_id": "M2GaCkKZgw3nMbXETbgGzw", "name": "Scripps Coastal Reserve", "address": "9400 La Jolla Farms Rd ,San Diego, CA 92037", "city": "San Diego", "state": "CA", "postal_code": "92037", "latitude": 32.8766798901299, "longitude": -117.245513361187, "stars": 4.5, "review_count": 62, "is_open": 1, "attributes": null, "tag": ["parks", "hiking"], "hours": {}, "location": {"type": "Point", "coordinates": [-117.245513361187, 32.8766798901299]}, "price": null, "categories": "hiking, all"}, {"business_id": "y-Uu_hwn601ZBA1LW37nfQ", "name": "Coast Walk Trail", "address": "Coast Walk Trl ,San Diego, CA 92037", "city": "San Diego", "state": "CA", "postal_code": "92037", "latitude": 32.84864, "longitude": -117.26627, "stars": 5.0, "review_count": 19, "is_open": 1, "attributes": null, "tag": ["hiking"], "hours": {}, "location": {"type": "Point", "coordinates": [-117.26627, 32.84864]}, "price": null, "categories": "hiking, all"}, {"business_id": "Wamb2LBSmznrdxlJNnxjXg", "name": "UCSD Outback Adventures", "address": "9500 Gilman Dr ,La Jolla, CA 92093", "city": "La Jolla", "state": "CA", "postal_code": "92093", "latitude": 32.88466962715256, "longitude": -117.2329597526044, "stars": 4.0, "review_count": 8, "is_open": 1, "attributes": null, "tag": ["hiking", "fitness", "rafting"], "hours": {"Monday": ["1200", "1800"], "Tuesday": ["1200", "1800"], "Wednesday": ["1200", "1800"], "Thursday": ["1200", "1800"], "Friday": ["1200", "1800"]}, "location": {"type": "Point", "coordinates": [-117.2329597526044, 32.88466962715256]}, "price": null, "categories": "hiking, all"}, {"business_id": "jb_c2toa2-ZDRRuwJFW8vw", "name": "San Dieguito River Park", "address": "15535 San Andres Dr ,Del Mar, CA 92014", "city": "Del Mar", "state": "CA", "postal_code": "92014", "latitude": 32.978344504286, "longitude": -117.247494636276, "stars": 4.5, "review_count": 9, "is_open": 1, "attributes": null, "tag": ["hiking", "mountainbiking"], "hours": {}, "location": {"type": "Point", "coordinates": [-117.247494636276, 32.978344504286]}, "price": null, "categories": "hiking, all"}, {"business_id": "8zGAb6QIkBKtM2zwkWnI5w", "name": "Black Mountain Open Space Park", "address": "12115 Black Mountain Rd ,Ste A ,San Diego, CA 92129", "city": "San Diego", "state": "CA", "postal_code": "92129", "latitude": 32.939079284668, "longitude": -117.126396179199, "stars": 4.0, "review_count": 55, "is_open": 1, "attributes": null, "tag": ["parks", "hiking"], "hours": {}, "location": {"type": "Point", "coordinates": [-117.126396179199, 32.939079284668]}, "price": null, "categories": "hiking, all"}, {"business_id": "cypadYcn7HAe5wtfz46SzA", "name": "La Jolla Heights Open Space", "address": "1478 Al Bahr Dr ,San Diego, CA 92037", "city": "San Diego", "state": "CA", "postal_code": "92037", "latitude": 32.8438057, "longitude": -117.2650791, "stars": 4.5, "review_count": 9, "is_open": 1, "attributes": null, "tag": ["hiking", "parks"], "hours": {}, "location": {"type": "Point", "coordinates": [-117.2650791, 32.8438057]}, "price": null, "categories": "hiking, all"}, {"business_id": "tKcE8nPn1h7iUZiE-xoEOA", "name": "La Jolla Colony Fitness Walking Trails", "address": "6599 La Jolla Colony Dr ,San Diego, CA 92122", "city": "San Diego", "state": "CA", "postal_code": "92122", "latitude": 32.8568937368983, "longitude": -117.22767336416, "stars": 5.0, "review_count": 4, "is_open": 1, "attributes": null, "tag": ["hiking"], "hours": {}, "location": {"type": "Point", "coordinates": [-117.22767336416, 32.8568937368983]}, "price": null, "categories": "hiking, all"}, {"business_id": "YlYQvMwLtGbd4EkzVuWB6Q", "name": "Marian Bear Memorial Park", "address": "5544 Regents Rd ,San Diego, CA 92117", "city": "San Diego", "state": "CA", "postal_code": "92117", "latitude": 32.8333192, "longitude": -117.2159736, "stars": 3.5, "review_count": 67, "is_open": 1, "attributes": null, "tag": ["hiking", "parks"], "hours": {}, "location": {"type": "Point", "coordinates": [-117.2159736, 32.8333192]}, "price": null, "categories": "hiking, all"}, {"business_id": "AaM4FeiBFvRsa4tuZOdxJQ", "name": "Torrey Pines Extension", "address": "Del Mar Scenic Pkwy ,Del Mar, CA 92014", "city": "Del Mar", "state": "CA", "postal_code": "92014", "latitude": 32.9383212425676, "longitude": -117.252756434641, "stars": 4.0, "review_count": 11, "is_open": 1, "attributes": null, "tag": ["hiking"], "hours": {"Monday": ["0700", "1700"], "Tuesday": ["0700", "1700"], "Wednesday": ["0700", "1700"], "Thursday": ["0700", "1700"], "Friday": ["0700", "1700"], "Saturday": ["0700", "1700"], "Sunday": ["0700", "1700"]}, "location": {"type": "Point", "coordinates": [-117.252756434641, 32.9383212425676]}, "price": null, "categories": "hiking, all"}, {"business_id": "cWJ7CPr5JFezTyMUkTEXnw", "name": "San Diego School of Survival", "address": "7190 Miramar Rd ,San Diego, CA 92121", "city": "San Diego", "state": "CA", "postal_code": "92121", "latitude": 32.8814969, "longitude": -117.1586055, "stars": 5.0, "review_count": 6, "is_open": 1, "attributes": null, "tag": ["hiking", "specialtyschools"], "hours": {"Monday": ["1000", "1900"], "Tuesday": ["1000", "1900"], "Wednesday": ["1000", "1900"], "Thursday": ["1000", "1900"], "Friday": ["1000", "1900"], "Saturday": ["1000", "1900"], "Sunday": ["1000", "1900"]}, "location": {"type": "Point", "coordinates": [-117.1586055, 32.8814969]}, "price": null, "categories": "hiking, all"}, {"business_id": "--BVNLLYkQFG70Ydz24M7Q", "name": "Enjoy the Mountain San Diego", "address": "8 Fwy ,Pine Valley, CA 91962", "city": "Pine Valley", "state": "CA", "postal_code": "91962", "latitude": 32.8149712, "longitude": -116.5250478, "stars": 4.5, "review_count": 10, "is_open": 1, "attributes": null, "tag": ["atvrentals", "rvrental", "hiking"], "hours": {"Monday": ["0800", "1800"], "Tuesday": ["0800", "1800"], "Wednesday": ["0800", "1800"], "Thursday": ["0800", "1800"], "Friday": ["0800", "1800"], "Saturday": ["0800", "1800"], "Sunday": ["0800", "1800"]}, "location": {"type": "Point", "coordinates": [-116.5250478, 32.8149712]}, "price": null, "categories": "hiking, all"}, {"business_id": "841mHm3-pJhHr_Esfr_9RQ", "name": "Yelp Kicks Butt: Day Seven Yelp Hike", "address": "12350 Black Mountain Rd ,San Diego, CA 92129", "city": "San Diego", "state": "CA", "postal_code": "92129", "latitude": 32.941611427524634, "longitude": -117.13272621546848, "stars": 5.0, "review_count": 5, "is_open": 1, "attributes": null, "tag": ["hiking", "fitness"], "hours": {"Saturday": ["0800", "1030"]}, "location": {"type": "Point", "coordinates": [-117.13272621546848, 32.941611427524634]}, "price": null, "categories": "hiking, all"}, {"business_id": "3alQnu1orpat_LA4wGgfbA", "name": "Driftwood Adventure Treks", "address": "San Diego, CA 92037", "city": "San Diego", "state": "CA", "postal_code": "92037", "latitude": 32.84214, "longitude": -117.27471, "stars": 5.0, "review_count": 4, "is_open": 1, "attributes": null, "tag": ["travelagents", "hiking", "tours"], "hours": {"Monday": ["0900", "1700"], "Tuesday": ["0900", "1700"], "Wednesday": ["0900", "1700"], "Thursday": ["0900", "1700"], "Friday": ["0900", "1700"]}, "location": {"type": "Point", "coordinates": [-117.27471, 32.84214]}, "price": null, "categories": "hiking, all"}, {"business_id": "JAzamBi1nhxq1MMpAmbxuA", "name": "Black Canyon Trail", "address": "9801 Hopkins Dr ,San Diego, CA 92093", "city": "San Diego", "state": "CA", "postal_code": "92093", "latitude": 32.88361476560293, "longitude": -117.2385138574287, "stars": 3.0, "review_count": 1, "is_open": 1, "attributes": null, "tag": ["hiking"], "hours": {}, "location": {"type": "Point", "coordinates": [-117.2385138574287, 32.88361476560293]}, "price": null, "categories": "hiking, all"}, {"business_id": "FZ5qPcM26pj50UYgUxkhTA", "name": "Pottery Canyon Natural Park", "address": "3034 Torrey Pines Rd ,La Jolla, CA 92037", "city": "La Jolla", "state": "CA", "postal_code": "92037", "latitude": 32.8580991, "longitude": -117.2463607, "stars": 4.5, "review_count": 2, "is_open": 1, "attributes": null, "tag": ["hiking"], "hours": {}, "location": {"type": "Point", "coordinates": [-117.2463607, 32.8580991]}, "price": null, "categories": "hiking, all"}, {"business_id": "mfJ9N_lH9hu8Kl0ik0diDQ", "name": "Lopez Canyon", "address": "4280 Sorrento Valley Blvd ,San Diego, CA 92121", "city": "San Diego", "state": "CA", "postal_code": "92121", "latitude": 32.906578477666685, "longitude": -117.206659, "stars": 4.0, "review_count": 4, "is_open": 1, "attributes": null, "tag": ["hiking"], "hours": {}, "location": {"type": "Point", "coordinates": [-117.206659, 32.906578477666685]}, "price": null, "categories": "hiking, all"}, {"business_id": "Ub_PctVH5cSZz5FR4vh22A", "name": "Ruffin Canyon Open Space", "address": "9191 Gramercy Dr ,San Diego, CA 92123", "city": "San Diego", "state": "CA", "postal_code": "92123", "latitude": 32.8016396, "longitude": -117.1294174, "stars": 3.5, "review_count": 14, "is_open": 1, "attributes": null, "tag": ["hiking"], "hours": {}, "location": {"type": "Point", "coordinates": [-117.1294174, 32.8016396]}, "price": null, "categories": "hiking, all"}, {"business_id": "wDDnj68OyGwJbc8UvAfJ-g", "name": "Marsh trail at Torry Pones Reseve", "address": "13079 North Torrey Pines Rd ,San Diego, CA 92121", "city": "San Diego", "state": "CA", "postal_code": "92121", "latitude": 32.9323146039074, "longitude": -117.259959356493, "stars": 5.0, "review_count": 2, "is_open": 1, "attributes": null, "tag": ["hiking"], "hours": {}, "location": {"type": "Point", "coordinates": [-117.259959356493, 32.9323146039074]}, "price": null, "categories": "hiking, all"}, {"business_id": "btXfhlkaecY6BpQ9GDZMGQ", "name": "The River Trail", "address": "San Dieguito Lagoon ,Jimmy Durante Blvd. west of Fairgrounds area ,Del Mar, CA 92014", "city": "Del Mar", "state": "CA", "postal_code": "92014", "latitude": 32.9707139910437, "longitude": -117.263007900247, "stars": 4.0, "review_count": 8, "is_open": 1, "attributes": null, "tag": ["hiking"], "hours": {}, "location": {"type": "Point", "coordinates": [-117.263007900247, 32.9707139910437]}, "price": null, "categories": "hiking, all"}, {"business_id": "qf76WmW9hiKNqsSJUbDshQ", "name": "Hidden Swing", "address": "2555 Ruette Nice ,La Jolla, CA 92037", "city": "La Jolla", "state": "CA", "postal_code": "92037", "latitude": 32.86449576623499, "longitude": -117.247776802193, "stars": 3.5, "review_count": 4, "is_open": 1, "attributes": null, "tag": ["hiking"], "hours": {}, "location": {"type": "Point", "coordinates": [-117.247776802193, 32.86449576623499]}, "price": null, "categories": "hiking, all"}, {"business_id": "wlmMKIjbTnlb1Nj9uIghGg", "name": "Sweetwater Trail", "address": "5200 Ruffin Rd ,San Diego, CA 92123", "city": "San Diego", "state": "CA", "postal_code": "92123", "latitude": 32.8299269, "longitude": -117.1268149, "stars": 4.0, "review_count": 9, "is_open": 1, "attributes": null, "tag": ["hiking", "horsebackriding"], "hours": {}, "location": {"type": "Point", "coordinates": [-117.1268149, 32.8299269]}, "price": null, "categories": "hiking, all"}, {"business_id": "DCZDOJtCsrW7SFrEfrYT6A", "name": "Crest Canyon Park", "address": "Del Mar, CA 92014", "city": "Del Mar", "state": "CA", "postal_code": "92014", "latitude": 32.9578315949876, "longitude": -117.25298294634, "stars": 4.5, "review_count": 6, "is_open": 1, "attributes": null, "tag": ["parks", "hiking"], "hours": {}, "location": {"type": "Point", "coordinates": [-117.25298294634, 32.9578315949876]}, "price": null, "categories": "hiking, all"}, {"business_id": "ZP6iv3tlCSvdpgXUwd8NOA", "name": "Rose Creek Trail", "address": "4760 Mission Bay Dr ,San Diego, CA 92109", "city": "San Diego", "state": "CA", "postal_code": "92109", "latitude": 32.8064981102943, "longitude": -117.219169735909, "stars": 4.0, "review_count": 7, "is_open": 1, "attributes": null, "tag": ["hiking"], "hours": {}, "location": {"type": "Point", "coordinates": [-117.219169735909, 32.8064981102943]}, "price": null, "categories": "hiking, all"}, {"business_id": "QcKXJ3LN7JzPv-oju31Bww", "name": "Los Pe\u00f1asquitos Marsh Natural Preserve And Lagoon Trail", "address": "11606 Flintkote Ave ,San Diego, CA 92121", "city": "San Diego", "state": "CA", "postal_code": "92121", "latitude": 32.9064033, "longitude": -117.2311917, "stars": 4.0, "review_count": 1, "is_open": 1, "attributes": null, "tag": ["parks", "hiking"], "hours": {}, "location": {"type": "Point", "coordinates": [-117.2311917, 32.9064033]}, "price": null, "categories": "hiking, all"}, {"business_id": "VFtkUP0eYrxKC3oxmrc9fg", "name": "Fay Avenue Bike Path", "address": "Fay Ave & Nautilus St ,La Jolla, CA 92037", "city": "La Jolla", "state": "CA", "postal_code": "92037", "latitude": 32.83272, "longitude": -117.27125, "stars": 4.0, "review_count": 1, "is_open": 1, "attributes": null, "tag": ["hiking"], "hours": {}, "location": {"type": "Point", "coordinates": [-117.27125, 32.83272]}, "price": null, "categories": "hiking, all"}, {"business_id": "BF_BQhES6vhdJFn5weZ67w", "name": "Manzanita Trail", "address": "6190 Valerian Vista Pl ,San Diego, CA 92130", "city": "San Diego", "state": "CA", "postal_code": "92130", "latitude": 32.9670677185059, "longitude": -117.187698364258, "stars": 4.5, "review_count": 3, "is_open": 1, "attributes": null, "tag": ["hiking"], "hours": {}, "location": {"type": "Point", "coordinates": [-117.187698364258, 32.9670677185059]}, "price": null, "categories": "hiking, all"}, {"business_id": "iNStn12_L1OpYlcC6FREqw", "name": "Del Mar Mesa Preserve", "address": "6900 The Preserve Way ,San Diego, CA 92130", "city": "San Diego", "state": "CA", "postal_code": "92130", "latitude": 32.94296, "longitude": -117.1733, "stars": 4.0, "review_count": 1, "is_open": 1, "attributes": null, "tag": ["hiking"], "hours": {}, "location": {"type": "Point", "coordinates": [-117.1733, 32.94296]}, "price": null, "categories": "hiking, all"}, {"business_id": "UjkZCL7JW2WNbsw5BG83GQ", "name": "Los Pe\u00f1aquitos Canyon Del Mar Mesa", "address": "7107 Park Village Rd ,San Diego, CA 92129", "city": "San Diego", "state": "CA", "postal_code": "92129", "latitude": 32.93890071016355, "longitude": -117.1689566666667, "stars": 4.5, "review_count": 2, "is_open": 1, "attributes": null, "tag": ["parks", "hiking"], "hours": {}, "location": {"type": "Point", "coordinates": [-117.1689566666667, 32.93890071016355]}, "price": null, "categories": "hiking, all"}, {"business_id": "egPCF2j0fufjHQJePfZ9YA", "name": "Starkey Mini Park", "address": "Draper Ave And Gravilla St ,San Diego, CA 92037", "city": "San Diego", "state": "CA", "postal_code": "92037", "latitude": 32.8297796845436, "longitude": -117.273320183158, "stars": 5.0, "review_count": 2, "is_open": 1, "attributes": null, "tag": ["hiking", "mountainbiking", "dog_parks"], "hours": {}, "location": {"type": "Point", "coordinates": [-117.273320183158, 32.8297796845436]}, "price": null, "categories": "hiking, all"}, {"business_id": "DmhiWBrm2bCkMldEezupPg", "name": "Dust Devil Trail", "address": "13884 El Camino Real ,San Diego, CA 92130", "city": "San Diego", "state": "CA", "postal_code": "92130", "latitude": 32.97020940931304, "longitude": -117.2397479206514, "stars": 4.0, "review_count": 1, "is_open": 1, "attributes": null, "tag": ["hiking"], "hours": {}, "location": {"type": "Point", "coordinates": [-117.2397479206514, 32.97020940931304]}, "price": null, "categories": "hiking, all"}, {"business_id": "NzM6pkGefi5uSuRRQ9Nv6w", "name": "La Jolla Bike Path", "address": "6305-6383 La Jolla Bike Path ,San Diego, CA 92037", "city": "San Diego", "state": "CA", "postal_code": "92037", "latitude": 32.8242531, "longitude": -117.2758331, "stars": 3.0, "review_count": 2, "is_open": 1, "attributes": null, "tag": ["hiking", "mountainbiking"], "hours": {}, "location": {"type": "Point", "coordinates": [-117.2758331, 32.8242531]}, "price": null, "categories": "hiking, all"}, {"business_id": "Y4XWhHOH7pwPxkrgkNJUQw", "name": "Tecolote Canyon Trail: Middle Section", "address": "3255 Mt Acadia Blvd ,San Diego, CA 92111", "city": "San Diego", "state": "CA", "postal_code": "92111", "latitude": 32.79853826142517, "longitude": -117.1890661420291, "stars": 3.0, "review_count": 1, "is_open": 1, "attributes": null, "tag": ["hiking"], "hours": {}, "location": {"type": "Point", "coordinates": [-117.1890661420291, 32.79853826142517]}, "price": null, "categories": "hiking, all"}, {"business_id": "mdXLofB6aiAV7A1AH1WnQA", "name": "Birch Aquarium", "address": "2300 Expedition Way ,Scripps Institution of Oceanography ,La Jolla, CA 92037", "city": "La Jolla", "state": "CA", "postal_code": "92037", "latitude": 32.865815, "longitude": -117.25064, "stars": 4.0, "review_count": 1026, "is_open": 1, "attributes": null, "tag": ["aquariums", "venues", "summer_camps"], "hours": {"Monday": ["0900", "1700"], "Tuesday": ["0900", "1700"], "Wednesday": ["0900", "1700"], "Thursday": ["0900", "1700"], "Friday": ["0900", "1700"], "Saturday": ["0900", "1700"], "Sunday": ["0900", "1700"]}, "location": {"type": "Point", "coordinates": [-117.25064, 32.865815]}, "price": null, "categories": "aquariums, all"}, {"business_id": "2j9tlEGtKz6HGts2Yv7jSg", "name": "SeaWorld San Diego", "address": "500 SeaWorld Dr ,San Diego, CA 92109", "city": "San Diego", "state": "CA", "postal_code": "92109", "latitude": 32.76199, "longitude": -117.22689, "stars": 3.5, "review_count": 3683, "is_open": 1, "attributes": null, "tag": ["amusementparks", "aquariums"], "hours": {"Monday": ["1000", "2200"], "Tuesday": ["1000", "2200"], "Wednesday": ["1000", "2200"], "Thursday": ["1000", "2200"], "Friday": ["1000", "2200"], "Saturday": ["1000", "2200"], "Sunday": ["1000", "2200"]}, "location": {"type": "Point", "coordinates": [-117.22689, 32.76199]}, "price": null, "categories": "aquariums, all"}, {"business_id": "CjOBVUqttXWUMiVo4gxakA", "name": "Living Coast Discovery Center", "address": "1000 Gunpowder Point Dr ,Chula Vista, CA 91910", "city": "Chula Vista", "state": "CA", "postal_code": "91910", "latitude": 32.6402761392221, "longitude": -117.110427646558, "stars": 4.0, "review_count": 286, "is_open": 1, "attributes": null, "tag": ["aquariums", "zoos"], "hours": {"Wednesday": ["1000", "1700"], "Thursday": ["1000", "1700"], "Friday": ["1000", "1700"], "Saturday": ["1000", "1700"], "Sunday": ["1000", "1700"]}, "location": {"type": "Point", "coordinates": [-117.110427646558, 32.6402761392221]}, "price": null, "categories": "aquariums, all"}, {"business_id": "HZby403hLe1BZoSKcER-fw", "name": "Sea Life Aquarium", "address": "1 Legoland Dr ,Carlsbad, CA 92008", "city": "Carlsbad", "state": "CA", "postal_code": "92008", "latitude": 33.126012, "longitude": -117.312372, "stars": 3.5, "review_count": 279, "is_open": 1, "attributes": null, "tag": ["aquariums"], "hours": {"Monday": ["1030", "1700"], "Tuesday": ["1030", "1700"], "Wednesday": ["1030", "1700"], "Thursday": ["1030", "1700"], "Friday": ["1030", "1700"], "Saturday": ["1030", "1800"], "Sunday": ["1030", "1800"]}, "location": {"type": "Point", "coordinates": [-117.312372, 33.126012]}, "price": null, "categories": "aquariums, all"}, {"business_id": "T1vMxPeMkxiL9GCaBYRqww", "name": "Penguin Experiences Tour at Sea World", "address": "500 Sea World Dr ,San Diego, CA 92109", "city": "San Diego", "state": "CA", "postal_code": "92109", "latitude": 32.763965, "longitude": -117.226734, "stars": 4.5, "review_count": 25, "is_open": 1, "attributes": null, "tag": ["aquariums"], "hours": {}, "location": {"type": "Point", "coordinates": [-117.226734, 32.763965]}, "price": null, "categories": "aquariums, all"}, {"business_id": "oTG_ps-bopsQUBt2cTbVaw", "name": "Penguin Encounter", "address": "500 Sea World Dr ,SeaWorld Parks & Entertainment ,San Diego, CA 92109", "city": "San Diego", "state": "CA", "postal_code": "92109", "latitude": 32.76588185748631, "longitude": -117.22287733009512, "stars": 4.5, "review_count": 20, "is_open": 1, "attributes": null, "tag": ["aquariums"], "hours": {}, "location": {"type": "Point", "coordinates": [-117.22287733009512, 32.76588185748631]}, "price": null, "categories": "aquariums, all"}, {"business_id": "kJ9ucswbb8zsD_jMG9dLYw", "name": "Shark Encounter at Sea World", "address": "500 Sea World Dr ,San Diego, CA 92109", "city": "San Diego", "state": "CA", "postal_code": "92109", "latitude": 32.7655476904768, "longitude": -117.22659603179, "stars": 4.5, "review_count": 20, "is_open": 1, "attributes": null, "tag": ["aquariums"], "hours": {}, "location": {"type": "Point", "coordinates": [-117.22659603179, 32.7655476904768]}, "price": null, "categories": "aquariums, all"}, {"business_id": "queAVB6npUwB6GNSQOhJ1w", "name": "Beluga Interaction Program", "address": "500 Seaworld Dr ,San Diego, CA 92109", "city": "San Diego", "state": "CA", "postal_code": "92109", "latitude": 32.764139491163846, "longitude": -117.22629742599806, "stars": 5.0, "review_count": 7, "is_open": 1, "attributes": null, "tag": ["aquariums", "amusementparks"], "hours": {}, "location": {"type": "Point", "coordinates": [-117.22629742599806, 32.764139491163846]}, "price": null, "categories": "aquariums, all"}, {"business_id": "5OiWcbd4yrH3SOj-B7M1jA", "name": "Turtle Reef at Sea World", "address": "500 Sea World Dr ,San Diego, CA 92109", "city": "San Diego", "state": "CA", "postal_code": "92109", "latitude": 32.766693703826, "longitude": -117.224915748865, "stars": 4.5, "review_count": 14, "is_open": 1, "attributes": null, "tag": ["aquariums"], "hours": {}, "location": {"type": "Point", "coordinates": [-117.224915748865, 32.766693703826]}, "price": null, "categories": "aquariums, all"}, {"business_id": "qTvR_7mkAJWUB6377yWLzA", "name": "Fishy Fish Fish", "address": "238 W Canada ,San Clemente, CA 92054", "city": "San Clemente", "state": "CA", "postal_code": "92054", "latitude": 33.426573, "longitude": -117.624828, "stars": 4.5, "review_count": 8, "is_open": 1, "attributes": null, "tag": ["aquariums", "petservices"], "hours": {"Monday": ["0900", "1500"], "Tuesday": ["0900", "1500"], "Wednesday": ["0900", "1500"], "Thursday": ["0900", "1500"], "Friday": ["0900", "1500"], "Saturday": ["1100", "1300"]}, "location": {"type": "Point", "coordinates": [-117.624828, 33.426573]}, "price": null, "categories": "aquariums, all"}, {"business_id": "MQanjsY-AaMiRaem-A07Aw", "name": "Sea World Dolphin Interaction", "address": "500 Sea World Dr ,San Diego, CA 92109", "city": "San Diego", "state": "CA", "postal_code": "92109", "latitude": 32.764946495530864, "longitude": -117.23072835660838, "stars": 4.0, "review_count": 7, "is_open": 1, "attributes": null, "tag": ["aquariums"], "hours": {"Monday": ["1100", "1800"], "Tuesday": ["1100", "1800"], "Wednesday": ["1100", "1800"], "Thursday": ["1100", "1800"], "Friday": ["1100", "2200"], "Saturday": ["1100", "1930"], "Sunday": ["1100", "1930"]}, "location": {"type": "Point", "coordinates": [-117.23072835660838, 32.764946495530864]}, "price": null, "categories": "aquariums, all"}, {"business_id": "IzYVNfBb9GHVusiU1sHwpQ", "name": "Wild Arctic at Sea World", "address": "500 Sea World Dr ,San Diego, CA 92109", "city": "San Diego", "state": "CA", "postal_code": "92109", "latitude": 32.765234788606456, "longitude": -117.22162285887974, "stars": 3.0, "review_count": 27, "is_open": 1, "attributes": null, "tag": ["aquariums"], "hours": {}, "location": {"type": "Point", "coordinates": [-117.22162285887974, 32.765234788606456]}, "price": null, "categories": "aquariums, all"}, {"business_id": "h-ncFbmAerrY0e_1197NsQ", "name": "Shamu's Underwater Viewing at Sea World", "address": "500 Sea World Dr ,San Diego, CA 92109", "city": "San Diego", "state": "CA", "postal_code": "92109", "latitude": 32.7653041016934, "longitude": -117.226612125209, "stars": 4.0, "review_count": 5, "is_open": 1, "attributes": null, "tag": ["aquariums"], "hours": {}, "location": {"type": "Point", "coordinates": [-117.226612125209, 32.7653041016934]}, "price": null, "categories": "aquariums, all"}, {"business_id": "xI8oJ_w50bh5w6LgrV2v7Q", "name": "World of Fishes at Sea World", "address": "500 Sea World Dr ,San Diego, CA 92109", "city": "San Diego", "state": "CA", "postal_code": "92109", "latitude": 32.7653898090049, "longitude": -117.226553116486, "stars": 4.5, "review_count": 5, "is_open": 1, "attributes": null, "tag": ["aquariums"], "hours": {}, "location": {"type": "Point", "coordinates": [-117.226553116486, 32.7653898090049]}, "price": null, "categories": "aquariums, all"}, {"business_id": "eNhOfBJWDOp7oRiV_X0SZw", "name": "Aquatic Living Systems", "address": "4531 Voltaire St ,San Diego, CA 92107", "city": "San Diego", "state": "CA", "postal_code": "92107", "latitude": 32.74684, "longitude": -117.23879, "stars": 5.0, "review_count": 3, "is_open": 1, "attributes": null, "tag": ["petservices", "aquariums"], "hours": {"Monday": ["0800", "1800"], "Tuesday": ["0800", "1800"], "Wednesday": ["0800", "1800"], "Thursday": ["0800", "1800"], "Friday": ["0800", "1800"], "Saturday": ["0800", "1200"]}, "location": {"type": "Point", "coordinates": [-117.23879, 32.74684]}, "price": null, "categories": "aquariums, all"}, {"business_id": "81EnNBwyQ0FEHekVff2Zsg", "name": "San Diego Aquarium Cleaning", "address": "San Diego, CA 92110", "city": "San Diego", "state": "CA", "postal_code": "92110", "latitude": 32.765186805428414, "longitude": -117.19990846299636, "stars": 5.0, "review_count": 2, "is_open": 1, "attributes": null, "tag": ["aquariumservices", "aquariums"], "hours": {"Monday": ["0700", "1900"], "Tuesday": ["0700", "1900"], "Wednesday": ["0700", "1900"], "Thursday": ["0700", "1900"], "Friday": ["0700", "1900"], "Saturday": ["0700", "1900"], "Sunday": ["0700", "1900"]}, "location": {"type": "Point", "coordinates": [-117.19990846299636, 32.765186805428414]}, "price": null, "categories": "aquariums, all"}, {"business_id": "iRoAxcP0fs7IpVnSluXreg", "name": "Explorer's Reef", "address": "500 Sea World Dr ,San Diego, CA 92109", "city": "San Diego", "state": "CA", "postal_code": "92109", "latitude": 32.7654740817879, "longitude": -117.226666399534, "stars": 4.5, "review_count": 4, "is_open": 1, "attributes": null, "tag": ["aquariums", "amusementparks"], "hours": {}, "location": {"type": "Point", "coordinates": [-117.226666399534, 32.7654740817879]}, "price": null, "categories": "aquariums, all"}, {"business_id": "rMP3RlJB-IO-8l_HfaIOFA", "name": "Ocean Explorer Seaworld", "address": "500 Sea World Dr ,San Diego, CA 92109", "city": "San Diego", "state": "CA", "postal_code": "92109", "latitude": 32.764872478729, "longitude": -117.226622600987, "stars": 2.5, "review_count": 10, "is_open": 1, "attributes": null, "tag": ["aquariums", "amusementparks", "beer_and_wine"], "hours": {}, "location": {"type": "Point", "coordinates": [-117.226622600987, 32.764872478729]}, "price": null, "categories": "aquariums, all"}, {"business_id": "2ZO5l_n0rFNo9z9MFRikIQ", "name": "Africa Rocks", "address": "2920 Zoo Dr ,San Diego Zoo ,San Diego, CA 92101", "city": "San Diego", "state": "CA", "postal_code": "92101", "latitude": 32.737850384620735, "longitude": -117.15142344235824, "stars": 4.5, "review_count": 2, "is_open": 1, "attributes": null, "tag": ["zoos", "aquariums"], "hours": {}, "location": {"type": "Point", "coordinates": [-117.15142344235824, 32.737850384620735]}, "price": null, "categories": "aquariums, all"}, {"business_id": "ULa6Oh2iSn13gplgbwifaA", "name": "Acuario de Tijuana", "address": "Paseo de los H\u00e9roes 9350 ,22010 Tijuana, Baja California ,Mexico", "city": "Tijuana", "state": "BCN", "postal_code": "22010", "latitude": 32.5297317644373, "longitude": -117.022875377338, "stars": 3.5, "review_count": 7, "is_open": 1, "attributes": null, "tag": ["aquariums"], "hours": {}, "location": {"type": "Point", "coordinates": [-117.022875377338, 32.5297317644373]}, "price": null, "categories": "aquariums, all"}, {"business_id": "hPRRA9GuhXCXEW2E3EUy2A", "name": "Crystal Dynamic Aquarium", "address": "3025 Industry St ,ste B ,Oceanside, CA 92054", "city": "Oceanside", "state": "CA", "postal_code": "92054", "latitude": 33.200475, "longitude": -117.336978, "stars": 1.0, "review_count": 1, "is_open": 1, "attributes": null, "tag": ["aquariums", "aquariumservices"], "hours": {}, "location": {"type": "Point", "coordinates": [-117.336978, 33.200475]}, "price": null, "categories": "aquariums, all"}, {"business_id": "nvZEecAs-P04LY2P7iO7Zg", "name": "California Tide Pool - Sea World", "address": "500 Sea World Dr ,San Diego, CA 92109", "city": "San Diego", "state": "CA", "postal_code": "92109", "latitude": 32.76382, "longitude": -117.2267516, "stars": 4.0, "review_count": 2, "is_open": 1, "attributes": null, "tag": ["aquariums", "amusementparks"], "hours": {}, "location": {"type": "Point", "coordinates": [-117.2267516, 32.76382]}, "price": null, "categories": "aquariums, all"}, {"business_id": "E7NQdTitFYGs45RkwShQOg", "name": "Current USA", "address": "2640 Business Park Dr ,Vista, CA 92081", "city": "Vista", "state": "CA", "postal_code": "92081", "latitude": 33.14623, "longitude": -117.23063, "stars": 5.0, "review_count": 3, "is_open": 1, "attributes": null, "tag": ["aquariums"], "hours": {}, "location": {"type": "Point", "coordinates": [-117.23063, 33.14623]}, "price": null, "categories": "aquariums, all"}, {"business_id": "9BXE83CQcIzDTtma8wpQSw", "name": "Shipwreck Rapids", "address": "500 Sea World Dr ,San Diego, CA 92109", "city": "San Diego", "state": "CA", "postal_code": "92109", "latitude": 32.76382, "longitude": -117.2267516, "stars": 3.0, "review_count": 12, "is_open": 1, "attributes": null, "tag": ["aquariums", "amusementparks"], "hours": {}, "location": {"type": "Point", "coordinates": [-117.2267516, 32.76382]}, "price": null, "categories": "aquariums, all"}, {"business_id": "Tzog-3a1qiVH1bjfxfbGfw", "name": "Penguin Encounter", "address": "2920 Zoo Dr ,San Diego, CA 92101", "city": "San Diego", "state": "CA", "postal_code": "92101", "latitude": 32.73582, "longitude": -117.14882, "stars": 5.0, "review_count": 1, "is_open": 1, "attributes": null, "tag": ["aquariums"], "hours": {}, "location": {"type": "Point", "coordinates": [-117.14882, 32.73582]}, "price": null, "categories": "aquariums, all"}, {"business_id": "C4_vXeQcRXuN2Gvtdgdwmg", "name": "Event Network", "address": "9606 Aero Dr ,Ste 1000 ,San Diego, CA 92123", "city": "San Diego", "state": "CA", "postal_code": "92123", "latitude": 32.80934, "longitude": -117.12154, "stars": 1.5, "review_count": 3, "is_open": 1, "attributes": null, "tag": ["giftshops", "gardens", "aquariums"], "hours": {}, "location": {"type": "Point", "coordinates": [-117.12154, 32.80934]}, "price": "$$$$", "categories": "aquariums, all"}, {"business_id": "_zZy9bgGBNT5iWW_VPWvgQ", "name": "Muir Woods Coffee House", "address": "9500 Gilman Dr ,Ste 0106 ,John Muir College ,La Jolla, CA 92093", "city": "La Jolla", "state": "CA", "postal_code": "92093", "latitude": 32.8788978885927, "longitude": -117.242507636547, "stars": 4.5, "review_count": 85, "is_open": 1, "attributes": null, "tag": ["coffee"], "hours": {"Monday": ["0800", "2100"], "Tuesday": ["0730", "2100"], "Wednesday": ["0730", "1800"], "Thursday": ["0730", "1800"], "Friday": ["0730", "1800"], "Saturday": ["1200", "1600"], "Sunday": ["1200", "1600"]}, "location": {"type": "Point", "coordinates": [-117.242507636547, 32.8788978885927]}, "price": "$", "categories": "coffee, all"}, {"business_id": "TO4SebgEebeCchOfIbxjLw", "name": "Richard Walker's Pancake House", "address": "909 Prospect St ,La Jolla, CA 92037", "city": "La Jolla", "state": "CA", "postal_code": "92037", "latitude": 32.846155, "longitude": -117.275393, "stars": 4.0, "review_count": 1155, "is_open": 1, "attributes": null, "tag": ["coffee", "waffles", "pancakes"], "hours": {"Monday": ["0630", "1430"], "Tuesday": ["0630", "1430"], "Wednesday": ["0630", "1430"], "Thursday": ["0630", "1430"], "Friday": ["0630", "1430"], "Saturday": ["0630", "1430"], "Sunday": ["0630", "1430"]}, "location": {"type": "Point", "coordinates": [-117.275393, 32.846155]}, "price": "$$", "categories": "coffee, all"}, {"business_id": "X0ChPwHcaOLfevQHQ3yxaA", "name": "Nespresso Boutique", "address": "4545 La Jolla Village Dr ,Space H7 ,San Diego, CA 92122", "city": "San Diego", "state": "CA", "postal_code": "92122", "latitude": 32.8709537675192, "longitude": -117.211040875452, "stars": 4.0, "review_count": 136, "is_open": 1, "attributes": null, "tag": ["coffee", "coffeeroasteries", "cafes"], "hours": {"Monday": ["1000", "2000"], "Tuesday": ["1000", "2000"], "Wednesday": ["1000", "2000"], "Thursday": ["1000", "2000"], "Friday": ["1000", "2000"], "Saturday": ["1000", "2000"], "Sunday": ["1100", "1900"]}, "location": {"type": "Point", "coordinates": [-117.211040875452, 32.8709537675192]}, "price": "$$", "categories": "coffee, all"}, {"business_id": "GhF8gSeCzhpu6g-LTXoIgw", "name": "Parakeet Cafe", "address": "927 Silverado St ,La Jolla, CA 92037", "city": "La Jolla", "state": "CA", "postal_code": "92037", "latitude": 32.84486, "longitude": -117.2743, "stars": 4.0, "review_count": 492, "is_open": 1, "attributes": null, "tag": ["coffee", "breakfast_brunch", "cafes"], "hours": {"Monday": ["0630", "1900"], "Tuesday": ["0630", "1900"], "Wednesday": ["0630", "1900"], "Thursday": ["0630", "1900"], "Friday": ["0630", "1900"], "Saturday": ["0630", "1900"], "Sunday": ["0630", "1900"]}, "location": {"type": "Point", "coordinates": [-117.2743, 32.84486]}, "price": "$$", "categories": "coffee, all"}, {"business_id": "X7zBnceGNT6dWnxWkayu-Q", "name": "La Colombe Coffee Roasters", "address": "4545 La Jolla Village Dr E ,Ste 2025 ,San Diego, CA 92122", "city": "San Diego", "state": "CA", "postal_code": "92122", "latitude": 32.8719170154477, "longitude": -117.212755448163, "stars": 4.0, "review_count": 269, "is_open": 1, "attributes": null, "tag": ["coffee", "coffeeroasteries"], "hours": {"Monday": ["0900", "2000"], "Tuesday": ["0900", "2000"], "Wednesday": ["0900", "2000"], "Thursday": ["0900", "2000"], "Friday": ["0900", "2000"], "Saturday": ["0900", "2000"], "Sunday": ["1000", "1900"]}, "location": {"type": "Point", "coordinates": [-117.212755448163, 32.8719170154477]}, "price": "$$", "categories": "coffee, all"}, {"business_id": "gLCdVaoyxOeGQZgvVkQLwg", "name": "Rosemonts Cafe", "address": "6830 La Jolla Blvd ,Ste 101 ,San Diego, CA 92037", "city": "San Diego", "state": "CA", "postal_code": "92037", "latitude": 32.83114, "longitude": -117.27663, "stars": 5.0, "review_count": 104, "is_open": 1, "attributes": null, "tag": ["cafes", "coffee", "sandwiches"], "hours": {"Monday": ["0630", "1600"], "Tuesday": ["0630", "1300"], "Wednesday": ["0630", "1300"], "Thursday": ["0630", "1600"], "Friday": ["0630", "1600"], "Saturday": ["0700", "1600"], "Sunday": ["0700", "1600"]}, "location": {"type": "Point", "coordinates": [-117.27663, 32.83114]}, "price": null, "categories": "coffee, all"}, {"business_id": "x06HEV4BLAe48XDu5kHlsQ", "name": "Fruittitude", "address": "7777 Girard Ave ,Ste 103 ,La Jolla, CA 92037", "city": "La Jolla", "state": "CA", "postal_code": "92037", "latitude": 32.84469382287476, "longitude": -117.27369166258408, "stars": 4.5, "review_count": 754, "is_open": 1, "attributes": null, "tag": ["bubbletea", "juicebars", "coffee"], "hours": {"Monday": ["0900", "1700"], "Tuesday": ["0900", "1700"], "Wednesday": ["0900", "1700"], "Thursday": ["0900", "1700"], "Friday": ["0900", "1700"], "Saturday": ["0900", "1700"], "Sunday": ["0900", "1700"]}, "location": {"type": "Point", "coordinates": [-117.27369166258408, 32.84469382287476]}, "price": "$$", "categories": "coffee, all"}, {"business_id": "H4WEf3SBmCIDXK23oWnUOA", "name": "Guiltea Cravings", "address": "5497 Clairemont Mesa Blvd ,San Diego, CA 92117", "city": "San Diego", "state": "CA", "postal_code": "92117", "latitude": 32.8336534365928, "longitude": -117.173902325062, "stars": 4.0, "review_count": 851, "is_open": 1, "attributes": null, "tag": ["coffee", "bakeries", "vietnamese"], "hours": {"Monday": ["0800", "2200"], "Tuesday": ["0800", "2200"], "Wednesday": ["0800", "2200"], "Thursday": ["0800", "2200"], "Friday": ["0800", "2200"], "Saturday": ["0800", "2200"], "Sunday": ["0800", "2200"]}, "location": {"type": "Point", "coordinates": [-117.173902325062, 32.8336534365928]}, "price": "$$", "categories": "coffee, all"}, {"business_id": "n1tljq2chSVyz3VBVQLOaQ", "name": "Humble Bean Cafe", "address": "2615 Denver St ,San Diego, CA 92110", "city": "San Diego", "state": "CA", "postal_code": "92110", "latitude": 32.78949, "longitude": -117.20315, "stars": 4.5, "review_count": 263, "is_open": 1, "attributes": null, "tag": ["coffee", "sandwiches", "acaibowls"], "hours": {"Monday": ["0700", "1600"], "Tuesday": ["0700", "1600"], "Wednesday": ["0700", "1600"], "Thursday": ["0700", "1600"], "Friday": ["0700", "1600"], "Saturday": ["0800", "1600"], "Sunday": ["0800", "1600"]}, "location": {"type": "Point", "coordinates": [-117.20315, 32.78949]}, "price": "$", "categories": "coffee, all"}, {"business_id": "xMZTgwe8MTgTLRYbkwEVlg", "name": "Forum Coffee", "address": "4340 Genesee Ave ,Ste 110 ,San Diego, CA 92117", "city": "San Diego", "state": "CA", "postal_code": "92117", "latitude": 32.8224876498521, "longitude": -117.18427721411, "stars": 4.5, "review_count": 1187, "is_open": 1, "attributes": null, "tag": ["coffee"], "hours": {"Monday": ["0700", "1900"], "Tuesday": ["0700", "1900"], "Wednesday": ["0700", "1900"], "Thursday": ["0700", "1900"], "Friday": ["0700", "1900"], "Saturday": ["0700", "1900"], "Sunday": ["0700", "1900"]}, "location": {"type": "Point", "coordinates": [-117.18427721411, 32.8224876498521]}, "price": "$$", "categories": "coffee, all"}, {"business_id": "tyOafQHqsjYv6BTphxuWXA", "name": "Friend's House Korean", "address": "4647 Convoy St ,Ste 101A ,San Diego, CA 92111", "city": "San Diego", "state": "CA", "postal_code": "92111", "latitude": 32.825360107861535, "longitude": -117.1547940288616, "stars": 4.0, "review_count": 1257, "is_open": 1, "attributes": null, "tag": ["korean", "coffee", "bars"], "hours": {"Monday": ["1100", "2130"], "Tuesday": ["1100", "2130"], "Wednesday": ["1100", "2130"], "Thursday": ["1100", "2130"], "Friday": ["1100", "2130"], "Saturday": ["1100", "2130"], "Sunday": ["1600", "2130"]}, "location": {"type": "Point", "coordinates": [-117.1547940288616, 32.825360107861535]}, "price": "$$", "categories": "coffee, all"}, {"business_id": "UhSXJC_CSBBs8JAFDpFMuQ", "name": "Better Buzz Coffee La Jolla", "address": "909 Prospect St ,Ste 100 A ,La Jolla, CA 92037", "city": "La Jolla", "state": "CA", "postal_code": "92037", "latitude": 32.846073363351564, "longitude": -117.27535738220912, "stars": 4.0, "review_count": 411, "is_open": 1, "attributes": null, "tag": ["coffee", "breakfast_brunch", "sandwiches"], "hours": {"Monday": ["0600", "1900"], "Tuesday": ["0600", "1900"], "Wednesday": ["0600", "1900"], "Thursday": ["0600", "1900"], "Friday": ["0600", "1900"], "Saturday": ["0600", "1900"], "Sunday": ["0600", "1900"]}, "location": {"type": "Point", "coordinates": [-117.27535738220912, 32.846073363351564]}, "price": "$", "categories": "coffee, all"}, {"business_id": "5XfpenEVtZQa_5SDXtRfsQ", "name": "Il Giardino di Lilli", "address": "7467 Girard Ave ,San Diego, CA 92037", "city": "San Diego", "state": "CA", "postal_code": "92037", "latitude": 32.840299077855406, "longitude": -117.2721813, "stars": 4.5, "review_count": 154, "is_open": 1, "attributes": null, "tag": ["coffee", "bakeries"], "hours": {"Monday": ["0700", "1600"], "Tuesday": ["0700", "1600"], "Wednesday": ["0700", "1600"], "Thursday": ["0700", "1600"], "Friday": ["0700", "1600"], "Saturday": ["0700", "1600"], "Sunday": ["0700", "1600"]}, "location": {"type": "Point", "coordinates": [-117.2721813, 32.840299077855406]}, "price": null, "categories": "coffee, all"}, {"business_id": "2gcFOcx0y9QWcVc4GbVJiQ", "name": "Brick & Bell Cafe", "address": "928 Silverado St ,La Jolla, CA 92037", "city": "La Jolla", "state": "CA", "postal_code": "92037", "latitude": 32.845138, "longitude": -117.2746, "stars": 4.0, "review_count": 664, "is_open": 1, "attributes": null, "tag": ["coffee", "cafes", "bakeries"], "hours": {"Monday": ["0430", "1730"], "Tuesday": ["0430", "1730"], "Wednesday": ["0430", "1730"], "Thursday": ["0430", "1730"], "Friday": ["0430", "1730"], "Saturday": ["0600", "1700"], "Sunday": ["0600", "1700"]}, "location": {"type": "Point", "coordinates": [-117.2746, 32.845138]}, "price": "$", "categories": "coffee, all"}, {"business_id": "nqvnYuLs9M8kMrESeGjsTw", "name": "Elixir Espresso & Wine Bar", "address": "7863 Girard Ave ,Ste 105 ,San Diego, CA 92037", "city": "San Diego", "state": "CA", "postal_code": "92037", "latitude": 32.846439, "longitude": -117.273978, "stars": 4.0, "review_count": 235, "is_open": 1, "attributes": null, "tag": ["creperies", "coffee", "bakeries"], "hours": {"Monday": ["0700", "1800"], "Tuesday": ["0700", "1800"], "Wednesday": ["0700", "1800"], "Thursday": ["0700", "1800"], "Friday": ["0700", "1800"], "Saturday": ["0700", "1800"], "Sunday": ["0700", "1800"]}, "location": {"type": "Point", "coordinates": [-117.273978, 32.846439]}, "price": "$", "categories": "coffee, all"}, {"business_id": "nW47084nRabKkzZymmPNLA", "name": "Cafe Vahik", "address": "6780 La Jolla Blvd ,La Jolla, CA 92037", "city": "La Jolla", "state": "CA", "postal_code": "92037", "latitude": 32.83034, "longitude": -117.27695, "stars": 4.5, "review_count": 616, "is_open": 1, "attributes": null, "tag": ["coffee", "breakfast_brunch", "sandwiches"], "hours": {"Monday": ["0600", "1500"], "Tuesday": ["0600", "1500"], "Wednesday": ["0600", "1500"], "Thursday": ["0600", "1500"], "Friday": ["0600", "1500"], "Saturday": ["0600", "1500"], "Sunday": ["0600", "1500"]}, "location": {"type": "Point", "coordinates": [-117.27695, 32.83034]}, "price": "$$", "categories": "coffee, all"}, {"business_id": "PTEfSy7l1F2CxP0WNVD0Gg", "name": "Finjan Coffee", "address": "9119 Clairemont Mesa Blvd ,San Diego, CA 92123", "city": "San Diego", "state": "CA", "postal_code": "92123", "latitude": 32.83091258646867, "longitude": -117.13249580238644, "stars": 5.0, "review_count": 245, "is_open": 1, "attributes": null, "tag": ["coffee", "mideastern"], "hours": {"Monday": ["0630", "1700"], "Tuesday": ["0630", "1700"], "Wednesday": ["0630", "1700"], "Thursday": ["0630", "1700"], "Friday": ["0630", "2000"], "Saturday": ["0800", "2000"], "Sunday": ["0800", "2000"]}, "location": {"type": "Point", "coordinates": [-117.13249580238644, 32.83091258646867]}, "price": "$", "categories": "coffee, all"}, {"business_id": "2wRJ7u73HrVGJWWvnE45Qw", "name": "The Mission Cafe", "address": "3795 Mission Blvd ,San Diego, CA 92109", "city": "San Diego", "state": "CA", "postal_code": "92109", "latitude": 32.7846968467209, "longitude": -117.25274455677, "stars": 4.5, "review_count": 1950, "is_open": 1, "attributes": null, "tag": ["coffee", "breakfast_brunch"], "hours": {"Monday": ["0730", "1330"], "Tuesday": ["0730", "1330"], "Wednesday": ["0730", "1330"], "Thursday": ["0730", "1330"], "Friday": ["0730", "1330"], "Saturday": ["0730", "1400"], "Sunday": ["0730", "1400"]}, "location": {"type": "Point", "coordinates": [-117.25274455677, 32.7846968467209]}, "price": "$$", "categories": "coffee, all"}, {"business_id": "F5ZPT-0U-bzhwTXdS_TxbQ", "name": "Drift Cafe", "address": "4652 Mission Blvd ,Pacific Beach, CA 92109", "city": "Pacific Beach", "state": "CA", "postal_code": "92109", "latitude": 32.79864, "longitude": -117.25641, "stars": 4.5, "review_count": 157, "is_open": 1, "attributes": null, "tag": ["coffee", "breakfast_brunch", "sandwiches"], "hours": {"Monday": ["0630", "1400"], "Tuesday": ["0630", "1400"], "Wednesday": ["0630", "1400"], "Thursday": ["0630", "1400"], "Friday": ["0630", "1400"], "Saturday": ["0630", "1400"], "Sunday": ["0630", "1400"]}, "location": {"type": "Point", "coordinates": [-117.25641, 32.79864]}, "price": null, "categories": "coffee, all"}, {"business_id": "laj06mClf6MLRU5jg1BfZA", "name": "The Coffee Cart Caf\u00e9 & Espresso Catering", "address": "11575 Sorrento Valley Rd ,Ste 201 ,San Diego, CA 92121", "city": "San Diego", "state": "CA", "postal_code": "92121", "latitude": 32.91319, "longitude": -117.23108, "stars": 5.0, "review_count": 34, "is_open": 1, "attributes": null, "tag": ["coffee", "catering"], "hours": {"Monday": ["0730", "1400"], "Tuesday": ["0730", "1400"], "Wednesday": ["0730", "1400"], "Thursday": ["0730", "1400"], "Friday": ["0730", "1400"]}, "location": {"type": "Point", "coordinates": [-117.23108, 32.91319]}, "price": null, "categories": "coffee, all"}, {"business_id": "jFvLPqgFuol0_wJDTXnrzg", "name": "Paran\u00e1 Empanadas Argentinas - Pacific Beach", "address": "956 Garnet Ave ,San Diego, CA 92109", "city": "San Diego", "state": "CA", "postal_code": "92109", "latitude": 32.7973778690193, "longitude": -117.252539433539, "stars": 4.5, "review_count": 135, "is_open": 1, "attributes": null, "tag": ["empanadas", "argentine", "coffee"], "hours": {"Monday": ["0900", "1900"], "Tuesday": ["0900", "1900"], "Wednesday": ["0900", "1900"], "Thursday": ["0900", "1900"], "Friday": ["0900", "1900"], "Saturday": ["0900", "1900"], "Sunday": ["0900", "1900"]}, "location": {"type": "Point", "coordinates": [-117.252539433539, 32.7973778690193]}, "price": "$", "categories": "coffee, all"}, {"business_id": "nVvoyX6yAqG9Ws5Q1xEITw", "name": "Copa Vida", "address": "10578 Science Center Dr ,San Diego, CA 92121", "city": "San Diego", "state": "CA", "postal_code": "92121", "latitude": 32.89576, "longitude": -117.2317, "stars": 4.5, "review_count": 25, "is_open": 1, "attributes": null, "tag": ["newamerican", "coffee"], "hours": {"Monday": ["0800", "1500"], "Tuesday": ["0800", "1500"], "Wednesday": ["0800", "1500"], "Thursday": ["0800", "1500"], "Friday": ["0800", "1500"]}, "location": {"type": "Point", "coordinates": [-117.2317, 32.89576]}, "price": "$", "categories": "coffee, all"}, {"business_id": "p8LpaOppVDLx2HrMIYMgbg", "name": "Blue Bottle Coffee", "address": "4577 La Jolla Village Dr ,Ste 1210 ,San Diego, CA 92122", "city": "San Diego", "state": "CA", "postal_code": "92122", "latitude": 32.8736972, "longitude": -117.2084698, "stars": 3.5, "review_count": 97, "is_open": 1, "attributes": null, "tag": ["coffee", "cafes"], "hours": {"Monday": ["0630", "1830"], "Tuesday": ["0630", "1830"], "Wednesday": ["0630", "1830"], "Thursday": ["0630", "1830"], "Friday": ["0630", "1830"], "Saturday": ["0630", "1830"], "Sunday": ["0630", "1830"]}, "location": {"type": "Point", "coordinates": [-117.2084698, 32.8736972]}, "price": "$", "categories": "coffee, all"}, {"business_id": "0HtjOhKZB-RAjlshA4wILQ", "name": "Audrey's Cafe", "address": "9500 Gilman Dr ,Geisel Library ,San Diego, CA 92093", "city": "San Diego", "state": "CA", "postal_code": "92093", "latitude": 32.8799731, "longitude": -117.237084, "stars": 3.5, "review_count": 30, "is_open": 1, "attributes": null, "tag": ["coffee"], "hours": {"Monday": ["0800", "1800"], "Tuesday": ["0800", "1800"], "Wednesday": ["0800", "1800"], "Thursday": ["0800", "1800"], "Friday": ["0800", "1700"]}, "location": {"type": "Point", "coordinates": [-117.237084, 32.8799731]}, "price": "$", "categories": "coffee, all"}, {"business_id": "OQ2qzBAMhD0FB2jP6yF_6w", "name": "Tapioca Express", "address": "9500 Gilman Dr ,Price Center ,La Jolla, CA 92093", "city": "La Jolla", "state": "CA", "postal_code": "92093", "latitude": 32.8795523073, "longitude": -117.236003689, "stars": 3.0, "review_count": 235, "is_open": 1, "attributes": null, "tag": ["coffee", "bubbletea", "juicebars"], "hours": {"Monday": ["0930", "2300"], "Tuesday": ["0930", "2300"], "Wednesday": ["0930", "1900"], "Thursday": ["0930", "2300"], "Friday": ["0930", "2300"], "Saturday": ["1030", "2300"], "Sunday": ["1030", "2300"]}, "location": {"type": "Point", "coordinates": [-117.236003689, 32.8795523073]}, "price": "$", "categories": "coffee, all"}, {"business_id": "6PiK825uCVWpTMoZ_Yiu_A", "name": "Havana Kitchen", "address": "1055 Torrey Pines Rd ,Ste 101 ,La Jolla, CA 92037", "city": "La Jolla", "state": "CA", "postal_code": "92037", "latitude": 32.842611, "longitude": -117.271879, "stars": 5.0, "review_count": 25, "is_open": 1, "attributes": null, "tag": ["cuban", "coffee", "caribbean"], "hours": {"Tuesday": ["1100", "1900"], "Wednesday": ["1100", "1900"], "Thursday": ["1100", "1900"], "Friday": ["1100", "2000"], "Saturday": ["1100", "2000"], "Sunday": ["1100", "2000"]}, "location": {"type": "Point", "coordinates": [-117.271879, 32.842611]}, "price": null, "categories": "coffee, all"}, {"business_id": "uTYO9V7DtZocOHw7We5ycg", "name": "Olive Cafe", "address": "805 Santa Clara Pl ,San Diego, CA 92109", "city": "San Diego", "state": "CA", "postal_code": "92109", "latitude": 32.78242554497801, "longitude": -117.2522096408802, "stars": 4.5, "review_count": 825, "is_open": 1, "attributes": null, "tag": ["breakfast_brunch", "coffee", "cafes"], "hours": {"Monday": ["0700", "1400"], "Tuesday": ["0700", "1400"], "Wednesday": ["0700", "1400"], "Thursday": ["0700", "1400"], "Friday": ["0700", "1400"], "Saturday": ["0700", "1400"], "Sunday": ["0700", "1400"]}, "location": {"type": "Point", "coordinates": [-117.2522096408802, 32.78242554497801]}, "price": "$$", "categories": "coffee, all"}, {"business_id": "BBt0_Cnn0vsAi5PEmrWrzQ", "name": "Java Earth Coffee La Jolla", "address": "1030 Torrey Pines Rd ,San Diego, CA 92037", "city": "San Diego", "state": "CA", "postal_code": "92037", "latitude": 32.84294, "longitude": -117.27251, "stars": 4.5, "review_count": 49, "is_open": 1, "attributes": null, "tag": ["coffee", "cafes", "breakfast_brunch"], "hours": {"Monday": ["0700", "1500"], "Tuesday": ["0700", "1500"], "Wednesday": ["0700", "1500"], "Thursday": ["0700", "1500"], "Friday": ["0700", "1500"], "Saturday": ["0700", "1500"], "Sunday": ["0800", "1500"]}, "location": {"type": "Point", "coordinates": [-117.27251, 32.84294]}, "price": null, "categories": "coffee, all"}, {"business_id": "_GxaKFdjh5nXEmLQ2r7GQQ", "name": "MNGO cafe", "address": "4176 Convoy St ,San Diego, CA 92111", "city": "San Diego", "state": "CA", "postal_code": "92111", "latitude": 32.81814768762482, "longitude": -117.15575792706042, "stars": 4.0, "review_count": 1519, "is_open": 1, "attributes": null, "tag": ["desserts", "coffee", "juicebars"], "hours": {"Monday": ["1200", "2100"], "Tuesday": ["1200", "2100"], "Wednesday": ["1200", "2100"], "Thursday": ["1200", "2100"], "Friday": ["1200", "2200"], "Saturday": ["1200", "2200"], "Sunday": ["1200", "2200"]}, "location": {"type": "Point", "coordinates": [-117.15575792706042, 32.81814768762482]}, "price": "$$", "categories": "coffee, all"}, {"business_id": "WeGXYKNw0E4pUvaiiIjj9w", "name": "Brick & Bell Cafe - La Jolla Shores", "address": "2216 Avenida De La Playa ,La Jolla, CA 92037", "city": "La Jolla", "state": "CA", "postal_code": "92037", "latitude": 32.8538906482683, "longitude": -117.25529709594, "stars": 4.0, "review_count": 258, "is_open": 1, "attributes": null, "tag": ["bakeries", "coffee", "cafes"], "hours": {"Monday": ["0500", "1730"], "Tuesday": ["0500", "1730"], "Wednesday": ["0500", "1730"], "Thursday": ["0500", "1730"], "Friday": ["0500", "1730"], "Saturday": ["0600", "1730"], "Sunday": ["0600", "1730"]}, "location": {"type": "Point", "coordinates": [-117.25529709594, 32.8538906482683]}, "price": "$", "categories": "coffee, all"}, {"business_id": "P_ne9YdkqKN1WyqMiJkAlA", "name": "La Clochette", "address": "4680 Cass St ,San Diego, CA 92109", "city": "San Diego", "state": "CA", "postal_code": "92109", "latitude": 32.799902, "longitude": -117.252801, "stars": 4.5, "review_count": 289, "is_open": 1, "attributes": null, "tag": ["bakeries", "coffee", "breakfast_brunch"], "hours": {"Monday": ["0700", "1430"], "Tuesday": ["0700", "1430"], "Wednesday": ["0700", "1430"], "Thursday": ["0700", "1430"], "Friday": ["0700", "1430"], "Saturday": ["0700", "1430"], "Sunday": ["0700", "1430"]}, "location": {"type": "Point", "coordinates": [-117.252801, 32.799902]}, "price": "$$", "categories": "coffee, all"}, {"business_id": "X8EmtgsqlB9QHJ7HH-FiIw", "name": "Park Social", "address": "8720 Ariva Ct ,Ste 10 ,San Diego, CA 92123", "city": "San Diego", "state": "CA", "postal_code": "92123", "latitude": 32.827702962048726, "longitude": -117.14007543626931, "stars": 4.5, "review_count": 398, "is_open": 1, "attributes": null, "tag": ["bars", "breakfast_brunch", "coffee"], "hours": {"Monday": ["0800", "2100"], "Tuesday": ["0800", "2100"], "Wednesday": ["0800", "2100"], "Thursday": ["0800", "2100"], "Friday": ["0800", "2100"], "Saturday": ["0800", "2100"], "Sunday": ["0800", "1800"]}, "location": {"type": "Point", "coordinates": [-117.14007543626931, 32.827702962048726]}, "price": "$$", "categories": "coffee, all"}, {"business_id": "Wu-9d7tlu49hiPlDHnHJzw", "name": "Shaka Java", "address": "3655 Nobel Dr ,San Diego, CA 92122", "city": "San Diego", "state": "CA", "postal_code": "92122", "latitude": 32.86783, "longitude": -117.22843, "stars": 5.0, "review_count": 12, "is_open": 1, "attributes": null, "tag": ["coffee", "acaibowls", "juicebars"], "hours": {"Monday": ["0700", "1430"], "Tuesday": ["0700", "1430"], "Wednesday": ["0700", "1430"], "Thursday": ["0700", "1430"], "Friday": ["0700", "1430"]}, "location": {"type": "Point", "coordinates": [-117.22843, 32.86783]}, "price": null, "categories": "coffee, all"}, {"business_id": "g9e0QxK3SgqLZk8Xbf_Axw", "name": "Bear Buns Bakery", "address": "3251 Greyling Dr ,San Diego, CA 92123", "city": "San Diego", "state": "CA", "postal_code": "92123", "latitude": 32.80189, "longitude": -117.13953, "stars": 4.5, "review_count": 632, "is_open": 1, "attributes": null, "tag": ["bakeries", "coffee", "cafes"], "hours": {"Tuesday": ["0700", "1300"], "Wednesday": ["0700", "1300"], "Thursday": ["0700", "1300"], "Friday": ["0700", "1300"], "Saturday": ["0800", "1400"], "Sunday": ["0800", "1400"]}, "location": {"type": "Point", "coordinates": [-117.13953, 32.80189]}, "price": "$", "categories": "coffee, all"}, {"business_id": "PZffJwoe1tHPW3leuCcD4Q", "name": "Vitality Bowls", "address": "8935 Towne Centre Dr ,Ste 107 ,San Diego, CA 92122", "city": "San Diego", "state": "CA", "postal_code": "92122", "latitude": 32.86747, "longitude": -117.20612, "stars": 4.0, "review_count": 200, "is_open": 1, "attributes": null, "tag": ["juicebars", "coffee", "acaibowls"], "hours": {"Monday": ["0800", "1900"], "Tuesday": ["0800", "1900"], "Wednesday": ["0800", "1900"], "Thursday": ["0800", "1900"], "Friday": ["0800", "1900"], "Saturday": ["0800", "1900"], "Sunday": ["0800", "1800"]}, "location": {"type": "Point", "coordinates": [-117.20612, 32.86747]}, "price": "$$", "categories": "coffee, all"}]